Zipcode,ZipCodeType,City,State,LocationType,Lat,Long,Location,Decommisioned,TaxReturnsFiled,EstimatedPopulation,TotalWages
92864,PO BOX,ORANGE,CA,PRIMARY,33.81,-117.82,NA-US-CA-ORANGE,false,,,
90743,PO BOX,SURFSIDE,CA,PRIMARY,33.72,-118.08,NA-US-CA-SURFSIDE,false,253,414,20855645
90006,STANDARD,LOS ANGELES,CA,PRIMARY,34.04,-118.29,NA-US-CA-LOS ANGELES,false,19691,34995,398768368
95554,STANDARD,MYERS FLAT,CA,PRIMARY,40.27,-123.82,NA-US-CA-MYERS FLAT,false,,,
95463,STANDARD,NAVARRO,CA,PRIMARY,39.21,-123.54,NA-US-CA-NAVARRO,false,,,
96024,STANDARD,DOUGLAS CITY,CA,PRIMARY,40.58,-122.86,NA-US-CA-DOUGLAS CITY,false,368,632,7781203
95033,STANDARD,LOS GATOS,CA,PRIMARY,37.13,-121.94,NA-US-CA-LOS GATOS,false,3995,7196,362751008
92142,PO BOX,SAN DIEGO,CA,PRIMARY,32.83,-117.09,NA-US-CA-SAN DIEGO,false,331,513,16653211
91386,PO BOX,CANYON COUNTRY,CA,PRIMARY,34.41,-118.45,NA-US-CA-CANYON COUNTRY,false,538,880,23448647
94537,PO BOX,FREMONT,CA,PRIMARY,37.55,-122.01,NA-US-CA-FREMONT,false,609,960,25070332
94948,PO BOX,NOVATO,CA,PRIMARY,38.13,-122.56,NA-US-CA-NOVATO,false,960,1474,34196711
95425,STANDARD,CLOVERDALE,CA,PRIMARY,38.78,-122.92,NA-US-CA-CLOVERDALE,false,4863,8841,184426364
93265,STANDARD,SPRINGVILLE,CA,PRIMARY,36.17,-118.70,NA-US-CA-SPRINGVILLE,false,1637,3031,64503836
95812,PO BOX,SACRAMENTO,CA,PRIMARY,38.58,-121.49,NA-US-CA-SACRAMENTO,false,655,1004,23943512
94257,PO BOX,SACRAMENTO,CA,PRIMARY,38.58,-121.49,NA-US-CA-SACRAMENTO,false,,,
96013,STANDARD,BURNEY,CA,PRIMARY,40.94,-121.74,NA-US-CA-BURNEY,false,1713,3131,52420022
95204,STANDARD,STOCKTON,CA,PRIMARY,37.97,-121.32,NA-US-CA-STOCKTON,false,11616,19838,389828210
95252,STANDARD,VALLEY SPRINGS,CA,PRIMARY,38.16,-120.84,NA-US-CA-VALLEY SPRINGS,false,5289,10080,216652276
93922,PO BOX,CARMEL,CA,PRIMARY,36.48,-121.74,NA-US-CA-CARMEL,false,1270,1913,42944661
94610,STANDARD,OAKLAND,CA,PRIMARY,37.81,-122.24,NA-US-CA-OAKLAND,false,16601,24162,1004840416
95073,STANDARD,SOQUEL,CA,PRIMARY,37.02,-121.94,NA-US-CA-SOQUEL,false,5537,9169,259513233
96007,STANDARD,ANDERSON,CA,PRIMARY,40.44,-122.35,NA-US-CA-ANDERSON,false,9083,16199,247425189
94533,STANDARD,FAIRFIELD,CA,PRIMARY,38.28,-122.00,NA-US-CA-FAIRFIELD,false,28284,51145,1053582692
94541,STANDARD,HAYWARD,CA,PRIMARY,37.67,-122.08,NA-US-CA-HAYWARD,false,25278,44424,981107000
90506,STANDARD,TORRANCE,CA,PRIMARY,33.88,-118.33,NA-US-CA-TORRANCE,false,,,
95923,STANDARD,CANYON DAM,CA,PRIMARY,40.15,-121.12,NA-US-CA-CANYON DAM,false,,,
94141,PO BOX,SAN FRANCISCO,CA,PRIMARY,37.76,-122.41,NA-US-CA-SAN FRANCISCO,false,304,414,11092499
91786,STANDARD,UPLAND,CA,PRIMARY,34.10,-117.66,NA-US-CA-UPLAND,false,21167,36960,772607430
91780,STANDARD,TEMPLE CITY,CA,PRIMARY,34.10,-118.05,NA-US-CA-TEMPLE CITY,false,16486,29368,646356716
94273,PO BOX,SACRAMENTO,CA,PRIMARY,38.58,-121.49,NA-US-CA-SACRAMENTO,false,,,
90311,STANDARD,INGLEWOOD,CA,PRIMARY,33.95,-118.35,NA-US-CA-INGLEWOOD,false,,,
90277,STANDARD,REDONDO BEACH,CA,PRIMARY,33.83,-118.38,NA-US-CA-REDONDO BEACH,false,19470,30038,1313473293
92584,STANDARD,MENIFEE,CA,PRIMARY,33.65,-117.18,NA-US-CA-MENIFEE,false,14456,28269,642746625
94083,PO BOX,SOUTH SAN FRANCISCO,CA,PRIMARY,37.64,-122.41,NA-US-CA-SOUTH SAN FRANCISCO,false,588,884,30587721
94203,PO BOX,SACRAMENTO,CA,PRIMARY,38.58,-121.49,NA-US-CA-SACRAMENTO,false,,,
95570,STANDARD,TRINIDAD,CA,PRIMARY,41.13,-124.04,NA-US-CA-TRINIDAD,false,1180,1922,29399895
95651,STANDARD,LOTUS,CA,PRIMARY,38.81,-120.93,NA-US-CA-LOTUS,false,367,625,14455830
91496,UNIQUE,VAN NUYS,CA,PRIMARY,34.16,-118.45,NA-US-CA-VAN NUYS,false,,,
94607,STANDARD,OAKLAND,CA,PRIMARY,37.81,-122.30,NA-US-CA-OAKLAND,false,9642,14897,352869660
95462,STANDARD,MONTE RIO,CA,PRIMARY,38.45,-123.01,NA-US-CA-MONTE RIO,false,564,836,15298351
94979,PO BOX,SAN ANSELMO,CA,PRIMARY,37.97,-122.56,NA-US-CA-SAN ANSELMO,false,355,493,14888029
92808,STANDARD,ANAHEIM,CA,PRIMARY,33.84,-117.73,NA-US-CA-ANAHEIM,false,8928,16631,670979023
90720,STANDARD,LOS ALAMITOS,CA,PRIMARY,33.79,-118.06,NA-US-CA-LOS ALAMITOS,false,10661,19065,638328684
95918,STANDARD,BROWNS VALLEY,CA,PRIMARY,39.33,-121.33,NA-US-CA-BROWNS VALLEY,false,950,1810,41135236
95015,PO BOX,CUPERTINO,CA,PRIMARY,37.32,-122.05,NA-US-CA-CUPERTINO,false,1013,1709,144898018
94244,PO BOX,SACRAMENTO,CA,PRIMARY,38.58,-121.49,NA-US-CA-SACRAMENTO,false,,,
95526,STANDARD,BRIDGEVILLE,CA,PRIMARY,40.42,-123.52,NA-US-CA-BRIDGEVILLE,false,,,
92377,STANDARD,RIALTO,CA,PRIMARY,34.16,-117.39,NA-US-CA-RIALTO,false,8990,16892,364632865
95604,PO BOX,AUBURN,CA,PRIMARY,38.90,-121.06,NA-US-CA-AUBURN,false,1904,3024,64255801
92856,PO BOX,ORANGE,CA,PRIMARY,33.78,-117.84,NA-US-CA-ORANGE,false,365,546,13320184
95765,STANDARD,ROCKLIN,CA,PRIMARY,38.81,-121.28,NA-US-CA-ROCKLIN,false,13307,25874,826381522
90621,STANDARD,BUENA PARK,CA,PRIMARY,33.87,-117.99,NA-US-CA-BUENA PARK,false,14018,26086,501666269
91522,UNIQUE,BURBANK,CA,PRIMARY,34.14,-118.33,NA-US-CA-BURBANK,false,,,
90605,STANDARD,WHITTIER,CA,PRIMARY,33.94,-118.03,NA-US-CA-WHITTIER,false,16595,30900,649862588
90680,STANDARD,STANTON,CA,PRIMARY,33.79,-117.99,NA-US-CA-STANTON,false,12613,23093,405626085
94234,PO BOX,SACRAMENTO,CA,PRIMARY,38.58,-121.49,NA-US-CA-SACRAMENTO,false,,,
90091,PO BOX,LOS ANGELES,CA,PRIMARY,33.99,-118.15,NA-US-CA-LOS ANGELES,false,,,
94649,UNIQUE,OAKLAND,CA,PRIMARY,37.80,-122.26,NA-US-CA-OAKLAND,false,,,
93106,UNIQUE,SANTA BARBARA,CA,PRIMARY,34.43,-119.83,NA-US-CA-SANTA BARBARA,false,338,359,6336406
93558,PO BOX,RED MOUNTAIN,CA,PRIMARY,35.35,-117.62,NA-US-CA-RED MOUNTAIN,false,,,
95228,STANDARD,COPPEROPOLIS,CA,PRIMARY,37.94,-120.66,NA-US-CA-COPPEROPOLIS,false,1743,3161,66198887
90008,STANDARD,LOS ANGELES,CA,PRIMARY,34.00,-118.34,NA-US-CA-LOS ANGELES,false,13333,21174,426689767
94288,PO BOX,SACRAMENTO,CA,PRIMARY,38.58,-121.49,NA-US-CA-SACRAMENTO,false,,,
92325,PO BOX,CRESTLINE,CA,PRIMARY,34.25,-117.30,NA-US-CA-CRESTLINE,false,4526,8046,161921159
95936,PO BOX,DOWNIEVILLE,CA,PRIMARY,39.58,-120.79,NA-US-CA-DOWNIEVILLE,false,,,
94306,STANDARD,PALO ALTO,CA,PRIMARY,37.41,-122.13,NA-US-CA-PALO ALTO,false,13078,22810,1304958156
93652,STANDARD,RAISIN CITY,CA,PRIMARY,36.59,-119.90,NA-US-CA-RAISIN CITY,false,325,664,6754061
93539,PO BOX,LANCASTER,CA,PRIMARY,34.68,-118.12,NA-US-CA-LANCASTER,false,1454,2456,54641557
93412,PO BOX,LOS OSOS,CA,PRIMARY,35.31,-120.83,NA-US-CA-LOS OSOS,false,522,787,15087840
96025,STANDARD,DUNSMUIR,CA,PRIMARY,41.19,-122.26,NA-US-CA-DUNSMUIR,false,985,1644,19702725
91602,STANDARD,NORTH HOLLYWOOD,CA,PRIMARY,34.15,-118.36,NA-US-CA-NORTH HOLLYWOOD,false,10134,13969,555014995
90009,PO BOX,LOS ANGELES,CA,PRIMARY,33.94,-118.38,NA-US-CA-LOS ANGELES,false,1137,1715,49947779
94805,STANDARD,RICHMOND,CA,PRIMARY,37.94,-122.31,NA-US-CA-RICHMOND,false,6254,10551,253017560
96009,PO BOX,BIEBER,CA,PRIMARY,41.06,-121.11,NA-US-CA-BIEBER,false,,,
95903,STANDARD,BEALE AFB,CA,PRIMARY,39.12,-121.39,NA-US-CA-BEALE AFB,false,846,1623,25497108
90036,STANDARD,LOS ANGELES,CA,PRIMARY,34.06,-118.35,NA-US-CA-LOS ANGELES,false,18339,26227,1069043429
94578,STANDARD,SAN LEANDRO,CA,PRIMARY,37.70,-122.12,NA-US-CA-SAN LEANDRO,false,16324,28085,608578221
95565,STANDARD,SCOTIA,CA,PRIMARY,40.42,-124.01,NA-US-CA-SCOTIA,false,447,853,13134306
93258,PO BOX,PORTERVILLE,CA,PRIMARY,36.05,-119.14,NA-US-CA-PORTERVILLE,false,2364,4767,52980767
95448,STANDARD,HEALDSBURG,CA,PRIMARY,38.63,-122.89,NA-US-CA-HEALDSBURG,false,8593,14838,343340891
95709,STANDARD,CAMINO,CA,PRIMARY,38.74,-120.68,NA-US-CA-CAMINO,false,2318,4150,86166905
91102,PO BOX,PASADENA,CA,PRIMARY,34.14,-118.14,NA-US-CA-PASADENA,false,452,651,22816592
96044,STANDARD,HORNBROOK,CA,PRIMARY,41.91,-122.49,NA-US-CA-HORNBROOK,false,369,643,8050905
90832,PO BOX,LONG BEACH,CA,PRIMARY,33.76,-118.19,NA-US-CA-LONG BEACH,false,,,
91350,STANDARD,SANTA CLARITA,CA,PRIMARY,34.43,-118.51,NA-US-CA-SANTA CLARITA,false,14808,27783,898276330
92629,STANDARD,DANA POINT,CA,PRIMARY,33.47,-117.70,NA-US-CA-DANA POINT,false,13978,22860,791307464
91607,STANDARD,VALLEY VILLAGE,CA,PRIMARY,34.16,-118.40,NA-US-CA-VALLEY VILLAGE,false,14046,21208,611687844
90272,STANDARD,PACIFIC PALISADES,CA,PRIMARY,34.07,-118.54,NA-US-CA-PACIFIC PALISADES,false,11165,19526,1750979831
92661,STANDARD,NEWPORT BEACH,CA,PRIMARY,33.60,-117.90,NA-US-CA-NEWPORT BEACH,false,2023,2915,131354093
93212,STANDARD,CORCORAN,CA,PRIMARY,36.07,-119.53,NA-US-CA-CORCORAN,false,4721,9472,137049139
94158,STANDARD,SAN FRANCISCO,CA,PRIMARY,37.76,-122.39,NA-US-CA-SAN FRANCISCO,false,2027,2706,184600084
92078,STANDARD,SAN MARCOS,CA,PRIMARY,33.11,-117.16,NA-US-CA-SAN MARCOS,false,17498,31603,908707511
93005,PO BOX,VENTURA,CA,PRIMARY,34.25,-119.20,NA-US-CA-VENTURA,false,257,387,7646569
91785,PO BOX,UPLAND,CA,PRIMARY,34.09,-117.64,NA-US-CA-UPLAND,false,745,1145,26449507
91733,STANDARD,SOUTH EL MONTE,CA,PRIMARY,34.04,-118.04,NA-US-CA-SOUTH EL MONTE,false,16472,31052,430750015
90038,STANDARD,LOS ANGELES,CA,PRIMARY,34.08,-118.32,NA-US-CA-LOS ANGELES,false,12126,18877,330114199
94127,STANDARD,SAN FRANCISCO,CA,PRIMARY,37.73,-122.45,NA-US-CA-SAN FRANCISCO,false,10351,17250,838910760
95865,PO BOX,SACRAMENTO,CA,PRIMARY,38.59,-121.40,NA-US-CA-SACRAMENTO,false,415,586,15859086
94659,UNIQUE,OAKLAND,CA,PRIMARY,37.81,-122.26,NA-US-CA-OAKLAND,false,,,
94274,PO BOX,SACRAMENTO,CA,PRIMARY,38.58,-121.49,NA-US-CA-SACRAMENTO,false,,,
92663,STANDARD,NEWPORT BEACH,CA,PRIMARY,33.62,-117.93,NA-US-CA-NEWPORT BEACH,false,11024,15815,726167963
93120,PO BOX,SANTA BARBARA,CA,PRIMARY,34.41,-119.70,NA-US-CA-SANTA BARBARA,false,496,694,13563869
94915,PO BOX,SAN RAFAEL,CA,PRIMARY,37.95,-122.50,NA-US-CA-SAN RAFAEL,false,503,710,15439176
94236,PO BOX,SACRAMENTO,CA,PRIMARY,38.58,-121.49,NA-US-CA-SACRAMENTO,false,,,
91025,PO BOX,SIERRA MADRE,CA,PRIMARY,34.16,-118.05,NA-US-CA-SIERRA MADRE,false,342,514,15953508
91503,PO BOX,BURBANK,CA,PRIMARY,34.18,-118.30,NA-US-CA-BURBANK,false,327,463,12489812
95128,STANDARD,SAN JOSE,CA,PRIMARY,37.31,-121.93,NA-US-CA-SAN JOSE,false,15216,25327,836311653
94207,PO BOX,SACRAMENTO,CA,PRIMARY,38.58,-121.49,NA-US-CA-SACRAMENTO,false,,,
93380,PO BOX,BAKERSFIELD,CA,PRIMARY,35.55,-118.92,NA-US-CA-BAKERSFIELD,false,430,727,20927465
92358,STANDARD,LYTLE CREEK,CA,PRIMARY,34.25,-117.54,NA-US-CA-LYTLE CREEK,false,364,603,12119673
91769,PO BOX,POMONA,CA,PRIMARY,34.06,-117.75,NA-US-CA-POMONA,false,937,1641,25971182
95625,PO BOX,ELMIRA,CA,PRIMARY,38.35,-121.90,NA-US-CA-ELMIRA,false,,,
95211,UNIQUE,STOCKTON,CA,PRIMARY,37.98,-121.30,NA-US-CA-STOCKTON,false,,,
93666,PO BOX,SULTANA,CA,PRIMARY,36.54,-119.33,NA-US-CA-SULTANA,false,407,842,8590796
96014,STANDARD,CALLAHAN,CA,PRIMARY,41.36,-122.77,NA-US-CA-CALLAHAN,false,,,
90032,STANDARD,LOS ANGELES,CA,PRIMARY,34.08,-118.17,NA-US-CA-LOS ANGELES,false,18296,32538,554013323
95621,STANDARD,CITRUS HEIGHTS,CA,PRIMARY,38.69,-121.31,NA-US-CA-CITRUS HEIGHTS,false,18910,31963,630532102
94303,STANDARD,PALO ALTO,CA,PRIMARY,37.45,-122.10,NA-US-CA-PALO ALTO,false,18392,34099,1243740903
94287,PO BOX,SACRAMENTO,CA,PRIMARY,38.58,-121.49,NA-US-CA-SACRAMENTO,false,,,
91354,STANDARD,VALENCIA,CA,PRIMARY,34.46,-118.57,NA-US-CA-VALENCIA,false,11578,22704,865576747
94569,PO BOX,PORT COSTA,CA,PRIMARY,38.03,-122.19,NA-US-CA-PORT COSTA,false,,,
91221,PO BOX,GLENDALE,CA,PRIMARY,34.16,-118.28,NA-US-CA-GLENDALE,false,347,507,13780291
93650,STANDARD,FRESNO,CA,PRIMARY,36.83,-119.79,NA-US-CA-FRESNO,false,1711,2966,37100818
95347,PO BOX,MOCCASIN,CA,PRIMARY,37.78,-120.30,NA-US-CA-MOCCASIN,false,,,
94044,STANDARD,PACIFICA,CA,PRIMARY,37.60,-122.45,NA-US-CA-PACIFICA,false,19084,32334,1118793871
94123,STANDARD,SAN FRANCISCO,CA,PRIMARY,37.80,-122.43,NA-US-CA-SAN FRANCISCO,false,14765,19132,1651891750
93447,PO BOX,PASO ROBLES,CA,PRIMARY,35.65,-120.69,NA-US-CA-PASO ROBLES,false,2384,4215,83573757
94252,PO BOX,SACRAMENTO,CA,PRIMARY,38.58,-121.49,NA-US-CA-SACRAMENTO,false,,,
90402,STANDARD,SANTA MONICA,CA,PRIMARY,34.03,-118.50,NA-US-CA-SANTA MONICA,false,5890,9702,860389063
95624,STANDARD,ELK GROVE,CA,PRIMARY,38.44,-121.30,NA-US-CA-ELK GROVE,false,25031,48052,1246914215
91416,PO BOX,ENCINO,CA,PRIMARY,34.17,-118.51,NA-US-CA-ENCINO,false,448,677,18143880
93730,STANDARD,FRESNO,CA,PRIMARY,36.90,-119.75,NA-US-CA-FRESNO,false,3993,7681,311497250
95560,STANDARD,REDWAY,CA,PRIMARY,40.15,-123.89,NA-US-CA-REDWAY,false,1055,1680,12980881
92587,STANDARD,SUN CITY,CA,PRIMARY,33.69,-117.24,NA-US-CA-SUN CITY,false,6657,12535,297132922
94107,STANDARD,SAN FRANCISCO,CA,PRIMARY,37.76,-122.39,NA-US-CA-SAN FRANCISCO,false,14578,19741,1310454565
93064,UNIQUE,BRANDEIS,CA,PRIMARY,34.28,-118.69,NA-US-CA-BRANDEIS,false,,,
93844,UNIQUE,FRESNO,CA,PRIMARY,36.75,-119.67,NA-US-CA-FRESNO,false,,,
91739,STANDARD,RANCHO CUCAMONGA,CA,PRIMARY,34.14,-117.51,NA-US-CA-RANCHO CUCAMONGA,false,13201,25587,840812511
95945,STANDARD,GRASS VALLEY,CA,PRIMARY,39.18,-120.98,NA-US-CA-GRASS VALLEY,false,11277,18769,315659807
93915,PO BOX,SALINAS,CA,PRIMARY,36.67,-121.62,NA-US-CA-SALINAS,false,1569,3402,38029501
93290,PO BOX,VISALIA,CA,PRIMARY,36.33,-119.29,NA-US-CA-VISALIA,false,676,1172,26469230
94597,STANDARD,WALNUT CREEK,CA,PRIMARY,37.91,-122.07,NA-US-CA-WALNUT CREEK,false,10755,16977,659243091
90027,STANDARD,LOS ANGELES,CA,PRIMARY,34.12,-118.28,NA-US-CA-LOS ANGELES,false,23660,33916,982450409
93504,PO BOX,CALIFORNIA CITY,CA,PRIMARY,35.14,-118.01,NA-US-CA-CALIFORNIA CITY,false,271,472,10623686
95213,PO BOX,STOCKTON,CA,PRIMARY,37.95,-121.43,NA-US-CA-STOCKTON,false,509,899,17398593
90012,STANDARD,LOS ANGELES,CA,PRIMARY,34.06,-118.24,NA-US-CA-LOS ANGELES,false,8834,13839,288859252
91711,STANDARD,CLAREMONT,CA,PRIMARY,34.12,-117.71,NA-US-CA-CLAREMONT,false,15562,27155,842885054
92305,STANDARD,ANGELUS OAKS,CA,PRIMARY,34.18,-116.86,NA-US-CA-ANGELUS OAKS,false,302,521,11641762
93905,STANDARD,SALINAS,CA,PRIMARY,36.67,-121.61,NA-US-CA-SALINAS,false,23927,49791,615318139
95054,STANDARD,SANTA CLARA,CA,PRIMARY,37.39,-121.96,NA-US-CA-SANTA CLARA,false,12243,20797,989222331
92247,PO BOX,LA QUINTA,CA,PRIMARY,33.66,-116.31,NA-US-CA-LA QUINTA,false,816,1310,28746619
95353,PO BOX,MODESTO,CA,PRIMARY,37.66,-120.94,NA-US-CA-MODESTO,false,459,728,15974413
92886,STANDARD,YORBA LINDA,CA,PRIMARY,33.89,-117.78,NA-US-CA-YORBA LINDA,false,21300,39360,1533011564
92570,STANDARD,PERRIS,CA,PRIMARY,33.78,-117.33,NA-US-CA-PERRIS,false,16762,33297,488394932
92842,PO BOX,GARDEN GROVE,CA,PRIMARY,33.77,-117.94,NA-US-CA-GARDEN GROVE,false,1015,1686,30150688
93272,STANDARD,TIPTON,CA,PRIMARY,36.04,-119.34,NA-US-CA-TIPTON,false,1294,2780,34049788
90023,STANDARD,LOS ANGELES,CA,PRIMARY,34.01,-118.20,NA-US-CA-LOS ANGELES,false,16014,30786,386600337
92646,STANDARD,HUNTINGTON BEACH,CA,PRIMARY,33.66,-117.97,NA-US-CA-HUNTINGTON BEACH,false,27770,47363,1503314991
90409,PO BOX,SANTA MONICA,CA,PRIMARY,34.00,-118.48,NA-US-CA-SANTA MONICA,false,,,
94108,STANDARD,SAN FRANCISCO,CA,PRIMARY,37.79,-122.40,NA-US-CA-SAN FRANCISCO,false,6848,10020,699476707
95113,STANDARD,SAN JOSE,CA,PRIMARY,37.33,-121.89,NA-US-CA-SAN JOSE,false,781,1049,37924110
96011,PO BOX,BIG BEND,CA,PRIMARY,41.04,-121.89,NA-US-CA-BIG BEND,false,,,
91357,PO BOX,TARZANA,CA,PRIMARY,34.17,-118.54,NA-US-CA-TARZANA,false,638,968,32975497
92130,STANDARD,SAN DIEGO,CA,PRIMARY,32.95,-117.19,NA-US-CA-SAN DIEGO,false,20971,40642,
95548,STANDARD,KLAMATH,CA,PRIMARY,41.59,-124.06,NA-US-CA-KLAMATH,false,428,716,8265345
95459,STANDARD,MANCHESTER,CA,PRIMARY,39.00,-123.62,NA-US-CA-MANCHESTER,false,,,
94177,UNIQUE,SAN FRANCISCO,CA,PRIMARY,37.79,-122.39,NA-US-CA-SAN FRANCISCO,false,,,
91325,STANDARD,NORTHRIDGE,CA,PRIMARY,34.23,-118.51,NA-US-CA-NORTHRIDGE,false,14277,24201,605192081
94528,PO BOX,DIABLO,CA,PRIMARY,37.83,-121.95,NA-US-CA-DIABLO,false,564,1028,74967379
90013,STANDARD,LOS ANGELES,CA,PRIMARY,34.04,-118.24,NA-US-CA-LOS ANGELES,false,3186,3973,115494378
91495,UNIQUE,SHERMAN OAKS,CA,PRIMARY,34.15,-118.44,NA-US-CA-SHERMAN OAKS,false,,,
91501,STANDARD,BURBANK,CA,PRIMARY,34.19,-118.29,NA-US-CA-BURBANK,false,9543,16002,422195614
93012,STANDARD,CAMARILLO,CA,PRIMARY,34.20,-118.98,NA-US-CA-CAMARILLO,false,15846,28348,973230925
94585,STANDARD,SUISUN CITY,CA,PRIMARY,38.16,-121.93,NA-US-CA-SUISUN CITY,false,12352,22796,546881991
90835,STANDARD,LONG BEACH,CA,PRIMARY,33.76,-118.20,NA-US-CA-LONG BEACH,false,,,
95357,STANDARD,MODESTO,CA,PRIMARY,37.67,-120.89,NA-US-CA-MODESTO,false,5474,10140,215924416
91390,STANDARD,SANTA CLARITA,CA,PRIMARY,34.53,-118.40,NA-US-CA-SANTA CLARITA,false,8165,15765,557223660
91017,PO BOX,MONROVIA,CA,PRIMARY,34.13,-117.98,NA-US-CA-MONROVIA,false,675,1030,26858385
96097,STANDARD,YREKA,CA,PRIMARY,41.75,-122.67,NA-US-CA-YREKA,false,4356,7554,111117054
96022,STANDARD,COTTONWOOD,CA,PRIMARY,40.33,-122.45,NA-US-CA-COTTONWOOD,false,6343,11976,212250361
95125,STANDARD,SAN JOSE,CA,PRIMARY,37.29,-121.88,NA-US-CA-SAN JOSE,false,23964,41048,1782530007
91912,PO BOX,CHULA VISTA,CA,PRIMARY,32.64,-117.08,NA-US-CA-CHULA VISTA,false,1900,3394,53260745
93403,PO BOX,SAN LUIS OBISPO,CA,PRIMARY,35.28,-120.65,NA-US-CA-SAN LUIS OBISPO,false,551,817,18805781
91770,STANDARD,ROSEMEAD,CA,PRIMARY,34.06,-118.08,NA-US-CA-ROSEMEAD,false,27892,49163,791579978
95965,STANDARD,OROVILLE,CA,PRIMARY,39.50,-121.67,NA-US-CA-OROVILLE,false,6946,12407,177380414
95386,STANDARD,WATERFORD,CA,PRIMARY,37.68,-120.64,NA-US-CA-WATERFORD,false,3767,7503,137011692
95987,STANDARD,WILLIAMS,CA,PRIMARY,39.11,-122.27,NA-US-CA-WILLIAMS,false,2635,5477,77827365
92226,PO BOX,BLYTHE,CA,PRIMARY,33.60,-114.58,NA-US-CA-BLYTHE,false,965,1695,33547128
92840,STANDARD,GARDEN GROVE,CA,PRIMARY,33.78,-117.93,NA-US-CA-GARDEN GROVE,false,22217,40332,753362334
93755,PO BOX,FRESNO,CA,PRIMARY,36.79,-119.79,NA-US-CA-FRESNO,false,450,698,12433550
95154,PO BOX,SAN JOSE,CA,PRIMARY,37.26,-121.91,NA-US-CA-SAN JOSE,false,318,491,14650621
92627,STANDARD,COSTA MESA,CA,PRIMARY,33.64,-117.91,NA-US-CA-COSTA MESA,false,26881,44941,1059386016
90103,UNIQUE,LOS ANGELES,CA,PRIMARY,33.99,-118.16,NA-US-CA-LOS ANGELES,false,,,
93613,PO BOX,CLOVIS,CA,PRIMARY,36.79,-119.64,NA-US-CA-CLOVIS,false,1181,1934,44024404
95826,STANDARD,SACRAMENTO,CA,PRIMARY,38.54,-121.38,NA-US-CA-SACRAMENTO,false,16604,26728,591278645
90853,PO BOX,LONG BEACH,CA,PRIMARY,33.75,-118.13,NA-US-CA-LONG BEACH,false,321,438,17092481
91395,PO BOX,MISSION HILLS,CA,PRIMARY,34.25,-118.46,NA-US-CA-MISSION HILLS,false,251,394,7023004
90301,STANDARD,INGLEWOOD,CA,PRIMARY,33.95,-118.36,NA-US-CA-INGLEWOOD,false,14733,25753,411155541
90806,STANDARD,LONG BEACH,CA,PRIMARY,33.81,-118.18,NA-US-CA-LONG BEACH,false,16386,29624,506856767
95514,STANDARD,BLOCKSBURG,CA,PRIMARY,40.31,-123.65,NA-US-CA-BLOCKSBURG,false,,,
96087,PO BOX,SHASTA,CA,PRIMARY,40.62,-122.50,NA-US-CA-SHASTA,false,506,877,16721316
93927,STANDARD,GREENFIELD,CA,PRIMARY,36.26,-121.37,NA-US-CA-GREENFIELD,false,6092,12788,184526450
93669,STANDARD,WISHON,CA,PRIMARY,37.26,-119.52,NA-US-CA-WISHON,false,,,
92372,STANDARD,PINON HILLS,CA,PRIMARY,34.47,-117.62,NA-US-CA-PINON HILLS,false,1972,3747,75581667
92684,PO BOX,WESTMINSTER,CA,PRIMARY,33.76,-118.00,NA-US-CA-WESTMINSTER,false,548,880,16728348
91008,STANDARD,DUARTE,CA,PRIMARY,34.14,-117.96,NA-US-CA-DUARTE,false,496,879,43628568
91933,PO BOX,IMPERIAL BEACH,CA,PRIMARY,32.58,-117.11,NA-US-CA-IMPERIAL BEACH,false,500,838,15308723
95009,PO BOX,CAMPBELL,CA,PRIMARY,37.28,-121.94,NA-US-CA-CAMPBELL,false,357,497,14193371
90731,STANDARD,SAN PEDRO,CA,PRIMARY,33.73,-118.29,NA-US-CA-SAN PEDRO,false,23793,40560,940784609
94043,STANDARD,MOUNTAIN VIEW,CA,PRIMARY,37.41,-122.05,NA-US-CA-MOUNTAIN VIEW,false,14062,22824,1083206958
95639,PO BOX,HOOD,CA,PRIMARY,38.35,-121.50,NA-US-CA-HOOD,false,,,
94209,PO BOX,SACRAMENTO,CA,PRIMARY,38.58,-121.49,NA-US-CA-SACRAMENTO,false,,,
95935,STANDARD,DOBBINS,CA,PRIMARY,39.36,-121.20,NA-US-CA-DOBBINS,false,328,565,6934611
93621,STANDARD,DUNLAP,CA,PRIMARY,36.79,-119.13,NA-US-CA-DUNLAP,false,,,
92806,STANDARD,ANAHEIM,CA,PRIMARY,33.83,-117.86,NA-US-CA-ANAHEIM,false,15970,28271,586091456
95924,PO BOX,CEDAR RIDGE,CA,PRIMARY,39.19,-121.02,NA-US-CA-CEDAR RIDGE,false,838,1401,22601330
91754,STANDARD,MONTEREY PARK,CA,PRIMARY,34.05,-118.14,NA-US-CA-MONTEREY PARK,false,16657,28166,560225230
90024,STANDARD,LOS ANGELES,CA,PRIMARY,34.06,-118.43,NA-US-CA-LOS ANGELES,false,15349,22009,1258492976
94074,STANDARD,SAN GREGORIO,CA,PRIMARY,37.33,-122.34,NA-US-CA-SAN GREGORIO,false,,,
92543,STANDARD,HEMET,CA,PRIMARY,33.66,-116.98,NA-US-CA-HEMET,false,11172,19884,251473360
93257,STANDARD,PORTERVILLE,CA,PRIMARY,35.96,-118.92,NA-US-CA-PORTERVILLE,false,24197,46960,708137068
93542,PO BOX,LITTLE LAKE,CA,PRIMARY,35.93,-117.90,NA-US-CA-LITTLE LAKE,false,,,
90063,STANDARD,LOS ANGELES,CA,PRIMARY,34.04,-118.18,NA-US-CA-LOS ANGELES,false,18911,35693,477209438
95350,STANDARD,MODESTO,CA,PRIMARY,37.67,-121.01,NA-US-CA-MODESTO,false,20710,36016,672280781
91406,STANDARD,VAN NUYS,CA,PRIMARY,34.19,-118.49,NA-US-CA-VAN NUYS,false,21563,37193,769046964
95726,STANDARD,POLLOCK PINES,CA,PRIMARY,38.74,-120.57,NA-US-CA-POLLOCK PINES,false,3865,6965,141222561
94020,STANDARD,LA HONDA,CA,PRIMARY,37.28,-122.24,NA-US-CA-LA HONDA,false,798,1307,54401389
93635,STANDARD,LOS BANOS,CA,PRIMARY,36.90,-121.02,NA-US-CA-LOS BANOS,false,13878,27870,483917467
91731,STANDARD,EL MONTE,CA,PRIMARY,34.08,-118.03,NA-US-CA-EL MONTE,false,10964,20017,291346804
90703,STANDARD,CERRITOS,CA,PRIMARY,33.86,-118.05,NA-US-CA-CERRITOS,false,24073,44208,1238370903
91021,PO BOX,MONTROSE,CA,PRIMARY,34.20,-118.22,NA-US-CA-MONTROSE,false,,,
92887,STANDARD,YORBA LINDA,CA,PRIMARY,33.88,-117.72,NA-US-CA-YORBA LINDA,false,9669,18153,823004537
94514,STANDARD,BYRON,CA,PRIMARY,37.85,-121.62,NA-US-CA-BYRON,false,927,1729,49842868
95121,STANDARD,SAN JOSE,CA,PRIMARY,37.30,-121.80,NA-US-CA-SAN JOSE,false,16525,30427,764176589
92111,STANDARD,SAN DIEGO,CA,PRIMARY,32.80,-117.16,NA-US-CA-SAN DIEGO,false,20706,34112,760709241
95346,STANDARD,MI WUK VILLAGE,CA,PRIMARY,38.10,-120.13,NA-US-CA-MI WUK VILLAGE,false,625,1069,17278061
90248,STANDARD,GARDENA,CA,PRIMARY,33.88,-118.27,NA-US-CA-GARDENA,false,5122,8825,217193866
91767,STANDARD,POMONA,CA,PRIMARY,34.08,-117.73,NA-US-CA-POMONA,false,18442,33720,578550841
92322,PO BOX,CEDARPINES PARK,CA,PRIMARY,34.25,-117.32,NA-US-CA-CEDARPINES PARK,false,,,
94104,STANDARD,SAN FRANCISCO,CA,PRIMARY,37.79,-122.40,NA-US-CA-SAN FRANCISCO,false,1342,1959,114862914
94403,STANDARD,SAN MATEO,CA,PRIMARY,37.54,-122.30,NA-US-CA-SAN MATEO,false,19779,33305,1237433782
92056,STANDARD,OCEANSIDE,CA,PRIMARY,33.20,-117.29,NA-US-CA-OCEANSIDE,false,24430,42843,944700547
91950,STANDARD,NATIONAL CITY,CA,PRIMARY,32.67,-117.09,NA-US-CA-NATIONAL CITY,false,22096,41162,606167193
91413,PO BOX,SHERMAN OAKS,CA,PRIMARY,34.16,-118.45,NA-US-CA-SHERMAN OAKS,false,910,1338,44223043
95209,STANDARD,STOCKTON,CA,PRIMARY,38.04,-121.35,NA-US-CA-STOCKTON,false,15802,29459,671129284
94124,STANDARD,SAN FRANCISCO,CA,PRIMARY,37.73,-122.38,NA-US-CA-SAN FRANCISCO,false,14212,24380,443516394
93727,STANDARD,FRESNO,CA,PRIMARY,36.75,-119.67,NA-US-CA-FRESNO,false,25826,48028,849304754
95130,STANDARD,SAN JOSE,CA,PRIMARY,37.28,-121.98,NA-US-CA-SAN JOSE,false,6006,10841,394573701
92506,STANDARD,RIVERSIDE,CA,PRIMARY,33.92,-117.36,NA-US-CA-RIVERSIDE,false,19518,35060,1006238599
95899,PO BOX,SACRAMENTO,CA,PRIMARY,38.57,-121.52,NA-US-CA-SACRAMENTO,false,,,
93790,PO BOX,FRESNO,CA,PRIMARY,36.78,-119.82,NA-US-CA-FRESNO,false,,,
92139,STANDARD,SAN DIEGO,CA,PRIMARY,32.68,-117.04,NA-US-CA-SAN DIEGO,false,15368,28551,545669456
93094,PO BOX,SIMI VALLEY,CA,PRIMARY,34.27,-118.79,NA-US-CA-SIMI VALLEY,false,459,720,18179849
96019,STANDARD,SHASTA LAKE,CA,PRIMARY,40.68,-122.37,NA-US-CA-SHASTA LAKE,false,3852,6917,104752899
93044,PO BOX,PORT HUENEME,CA,PRIMARY,34.15,-119.19,NA-US-CA-PORT HUENEME,false,965,1694,34203700
90509,PO BOX,TORRANCE,CA,PRIMARY,33.84,-118.32,NA-US-CA-TORRANCE,false,,,
94144,UNIQUE,SAN FRANCISCO,CA,PRIMARY,37.78,-122.46,NA-US-CA-SAN FRANCISCO,false,,,
93524,UNIQUE,EDWARDS,CA,PRIMARY,34.92,-117.94,NA-US-CA-EDWARDS,false,,,
90017,STANDARD,LOS ANGELES,CA,PRIMARY,34.05,-118.26,NA-US-CA-LOS ANGELES,false,6831,11309,229419093
90057,STANDARD,LOS ANGELES,CA,PRIMARY,34.06,-118.27,NA-US-CA-LOS ANGELES,false,12404,21531,278373802
94204,PO BOX,SACRAMENTO,CA,PRIMARY,38.60,-121.44,NA-US-CA-SACRAMENTO,false,,,
90050,PO BOX,LOS ANGELES,CA,PRIMARY,34.12,-118.20,NA-US-CA-LOS ANGELES,false,256,407,6497396
96020,STANDARD,CHESTER,CA,PRIMARY,40.27,-121.24,NA-US-CA-CHESTER,false,1303,2304,36313197
95563,PO BOX,SALYER,CA,PRIMARY,40.86,-123.55,NA-US-CA-SALYER,false,,,
94801,STANDARD,RICHMOND,CA,PRIMARY,37.96,-122.38,NA-US-CA-RICHMOND,false,9833,18180,335224749
92251,STANDARD,IMPERIAL,CA,PRIMARY,32.86,-115.65,NA-US-CA-IMPERIAL,false,6214,12786,294196198
92815,PO BOX,ANAHEIM,CA,PRIMARY,33.83,-117.91,NA-US-CA-ANAHEIM,false,481,778,14037209
93744,PO BOX,FRESNO,CA,PRIMARY,36.75,-119.79,NA-US-CA-FRESNO,false,293,434,7827572
93544,STANDARD,LLANO,CA,PRIMARY,34.49,-117.77,NA-US-CA-LLANO,false,448,767,13231509
95075,STANDARD,TRES PINOS,CA,PRIMARY,36.77,-121.29,NA-US-CA-TRES PINOS,false,333,603,15980897
90099,STANDARD,LOS ANGELES,CA,PRIMARY,34.06,-118.23,NA-US-CA-LOS ANGELES,false,,,
92029,STANDARD,ESCONDIDO,CA,PRIMARY,33.08,-117.13,NA-US-CA-ESCONDIDO,false,8673,15470,476659017
95619,STANDARD,DIAMOND SPRINGS,CA,PRIMARY,38.67,-120.81,NA-US-CA-DIAMOND SPRINGS,false,2571,4471,84570004
90742,PO BOX,SUNSET BEACH,CA,PRIMARY,33.71,-118.07,NA-US-CA-SUNSET BEACH,false,737,1081,44446622
93921,PO BOX,CARMEL BY THE SEA,CA,PRIMARY,36.55,-121.92,NA-US-CA-CARMEL BY THE SEA,false,2697,4014,96704016
95976,UNIQUE,CHICO,CA,PRIMARY,39.75,-121.86,NA-US-CA-CHICO,false,,,
93623,STANDARD,FISH CAMP,CA,PRIMARY,37.47,-119.66,NA-US-CA-FISH CAMP,false,,,
95232,STANDARD,GLENCOE,CA,PRIMARY,38.35,-120.58,NA-US-CA-GLENCOE,false,,,
95234,PO BOX,HOLT,CA,PRIMARY,37.93,-121.42,NA-US-CA-HOLT,false,,,
93776,PO BOX,FRESNO,CA,PRIMARY,36.75,-119.78,NA-US-CA-FRESNO,false,,,
95547,STANDARD,HYDESVILLE,CA,PRIMARY,40.56,-124.07,NA-US-CA-HYDESVILLE,false,553,1029,18340092
94613,PO BOX,OAKLAND,CA,PRIMARY,37.78,-122.18,NA-US-CA-OAKLAND,false,,,
93387,PO BOX,BAKERSFIELD,CA,PRIMARY,35.35,-118.95,NA-US-CA-BAKERSFIELD,false,455,874,10952866
95133,STANDARD,SAN JOSE,CA,PRIMARY,37.37,-121.86,NA-US-CA-SAN JOSE,false,11225,20337,540610693
95642,STANDARD,JACKSON,CA,PRIMARY,38.35,-120.77,NA-US-CA-JACKSON,false,3603,6104,116735356
90620,STANDARD,BUENA PARK,CA,PRIMARY,33.84,-118.00,NA-US-CA-BUENA PARK,false,20471,36788,839100785
93793,PO BOX,FRESNO,CA,PRIMARY,36.78,-119.82,NA-US-CA-FRESNO,false,,,
92650,PO BOX,EAST IRVINE,CA,PRIMARY,33.67,-117.75,NA-US-CA-EAST IRVINE,false,,,
93643,STANDARD,NORTH FORK,CA,PRIMARY,37.23,-119.49,NA-US-CA-NORTH FORK,false,1372,2422,40309861
92860,STANDARD,NORCO,CA,PRIMARY,33.93,-117.56,NA-US-CA-NORCO,false,10464,18965,494727041
90064,STANDARD,LOS ANGELES,CA,PRIMARY,34.03,-118.43,NA-US-CA-LOS ANGELES,false,13940,22483,1105519048
93243,STANDARD,LEBEC,CA,PRIMARY,34.86,-118.87,NA-US-CA-LEBEC,false,628,1151,21409823
94661,PO BOX,OAKLAND,CA,PRIMARY,37.82,-122.20,NA-US-CA-OAKLAND,false,,,
91768,STANDARD,POMONA,CA,PRIMARY,34.06,-117.79,NA-US-CA-POMONA,false,11990,22349,358162592
94545,STANDARD,HAYWARD,CA,PRIMARY,37.62,-122.11,NA-US-CA-HAYWARD,false,13871,24681,595679545
93420,STANDARD,ARROYO GRANDE,CA,PRIMARY,35.16,-120.43,NA-US-CA-ARROYO GRANDE,false,12644,22308,503657413
91732,STANDARD,EL MONTE,CA,PRIMARY,34.07,-118.01,NA-US-CA-EL MONTE,false,23428,43596,647476228
96091,STANDARD,TRINITY CENTER,CA,PRIMARY,41.05,-122.78,NA-US-CA-TRINITY CENTER,false,293,501,3841609
92780,STANDARD,TUSTIN,CA,PRIMARY,33.74,-117.82,NA-US-CA-TUSTIN,false,23809,42492,984730716
92250,STANDARD,HOLTVILLE,CA,PRIMARY,32.83,-115.19,NA-US-CA-HOLTVILLE,false,3153,6337,100327749
94110,STANDARD,SAN FRANCISCO,CA,PRIMARY,37.74,-122.41,NA-US-CA-SAN FRANCISCO,false,36921,53093,1906798448
94574,STANDARD,SAINT HELENA,CA,PRIMARY,38.55,-122.39,NA-US-CA-SAINT HELENA,false,4163,7143,197224947
93455,STANDARD,SANTA MARIA,CA,PRIMARY,34.82,-120.41,NA-US-CA-SANTA MARIA,false,18124,33212,772537980
93550,STANDARD,PALMDALE,CA,PRIMARY,34.52,-118.08,NA-US-CA-PALMDALE,false,24894,48104,753382569
91322,PO BOX,NEWHALL,CA,PRIMARY,34.38,-118.53,NA-US-CA-NEWHALL,false,475,776,19266266
95062,STANDARD,SANTA CRUZ,CA,PRIMARY,36.97,-121.98,NA-US-CA-SANTA CRUZ,false,16703,26530,682311340
95255,STANDARD,WEST POINT,CA,PRIMARY,38.42,-120.44,NA-US-CA-WEST POINT,false,757,1287,17741557
92003,STANDARD,BONSALL,CA,PRIMARY,33.28,-117.19,NA-US-CA-BONSALL,false,2581,4661,102841912
91506,STANDARD,BURBANK,CA,PRIMARY,34.17,-118.32,NA-US-CA-BURBANK,false,9382,15393,455379693
90020,STANDARD,LOS ANGELES,CA,PRIMARY,34.06,-118.31,NA-US-CA-LOS ANGELES,false,14996,25029,526453188
93786,UNIQUE,FRESNO,CA,PRIMARY,36.63,-119.90,NA-US-CA-FRESNO,false,,,
95842,STANDARD,SACRAMENTO,CA,PRIMARY,38.68,-121.34,NA-US-CA-SACRAMENTO,false,12877,22672,390435854
95328,STANDARD,KEYES,CA,PRIMARY,37.55,-120.91,NA-US-CA-KEYES,false,1139,2288,33355040
92203,STANDARD,INDIO,CA,PRIMARY,33.75,-116.23,NA-US-CA-INDIO,false,9342,16919,392505920
94164,PO BOX,SAN FRANCISCO,CA,PRIMARY,37.78,-122.42,NA-US-CA-SAN FRANCISCO,false,351,467,13580217
92807,STANDARD,ANAHEIM,CA,PRIMARY,33.85,-117.79,NA-US-CA-ANAHEIM,false,17317,31116,1037977959
93210,STANDARD,COALINGA,CA,PRIMARY,36.19,-120.39,NA-US-CA-COALINGA,false,5389,9762,179066766
94937,STANDARD,INVERNESS,CA,PRIMARY,38.11,-122.92,NA-US-CA-INVERNESS,false,528,867,14666241
95416,PO BOX,BOYES HOT SPRINGS,CA,PRIMARY,38.31,-122.48,NA-US-CA-BOYES HOT SPRINGS,false,1304,2731,38204678
92501,STANDARD,RIVERSIDE,CA,PRIMARY,33.99,-117.38,NA-US-CA-RIVERSIDE,false,7581,13444,249008908
94037,PO BOX,MONTARA,CA,PRIMARY,37.54,-122.50,NA-US-CA-MONTARA,false,1390,2482,119857005
92548,STANDARD,HOMELAND,CA,PRIMARY,33.75,-117.11,NA-US-CA-HOMELAND,false,2217,4175,54832147
92065,STANDARD,RAMONA,CA,PRIMARY,33.07,-116.83,NA-US-CA-RAMONA,false,15443,28767,772069971
92147,UNIQUE,SAN DIEGO,CA,PRIMARY,32.70,-117.20,NA-US-CA-SAN DIEGO,false,,,
95694,STANDARD,WINTERS,CA,PRIMARY,38.56,-121.99,NA-US-CA-WINTERS,false,4063,7665,166508481
93011,PO BOX,CAMARILLO,CA,PRIMARY,34.21,-119.03,NA-US-CA-CAMARILLO,false,1178,1879,47507052
94571,STANDARD,RIO VISTA,CA,PRIMARY,38.18,-121.73,NA-US-CA-RIO VISTA,false,3913,6699,129395123
96017,STANDARD,CASTELLA,CA,PRIMARY,41.10,-122.35,NA-US-CA-CASTELLA,false,,,
93271,STANDARD,THREE RIVERS,CA,PRIMARY,36.44,-118.86,NA-US-CA-THREE RIVERS,false,1086,1879,37368070
95666,STANDARD,PIONEER,CA,PRIMARY,38.56,-120.17,NA-US-CA-PIONEER,false,2400,4179,65818845
93514,STANDARD,BISHOP,CA,PRIMARY,37.50,-118.31,NA-US-CA-BISHOP,false,5778,10011,192885755
95311,STANDARD,COULTERVILLE,CA,PRIMARY,37.71,-120.12,NA-US-CA-COULTERVILLE,false,781,1402,19322366
95433,PO BOX,EL VERANO,CA,PRIMARY,38.29,-122.48,NA-US-CA-EL VERANO,false,505,873,14709437
92013,PO BOX,CARLSBAD,CA,PRIMARY,33.15,-117.35,NA-US-CA-CARLSBAD,false,431,671,22760247
92712,PO BOX,SANTA ANA,CA,PRIMARY,33.75,-117.87,NA-US-CA-SANTA ANA,false,,,
92653,STANDARD,LAGUNA HILLS,CA,PRIMARY,33.60,-117.71,NA-US-CA-LAGUNA HILLS,false,14789,26019,945134168
95388,STANDARD,WINTON,CA,PRIMARY,37.41,-120.59,NA-US-CA-WINTON,false,4696,9257,115942186
92101,STANDARD,SAN DIEGO,CA,PRIMARY,32.71,-117.16,NA-US-CA-SAN DIEGO,false,16788,21606,941833907
93453,STANDARD,SANTA MARGARITA,CA,PRIMARY,35.31,-120.27,NA-US-CA-SANTA MARGARITA,false,1386,2396,50230334
90713,STANDARD,LAKEWOOD,CA,PRIMARY,33.85,-118.11,NA-US-CA-LAKEWOOD,false,13378,23966,704392325
95358,STANDARD,MODESTO,CA,PRIMARY,37.65,-121.13,NA-US-CA-MODESTO,false,11496,22496,357126414
92286,PO BOX,YUCCA VALLEY,CA,PRIMARY,34.18,-116.40,NA-US-CA-YUCCA VALLEY,false,1090,1793,28147816
93638,STANDARD,MADERA,CA,PRIMARY,37.01,-119.94,NA-US-CA-MADERA,false,15100,31212,390272755
93429,PO BOX,CASMALIA,CA,PRIMARY,34.86,-120.52,NA-US-CA-CASMALIA,false,,,
96089,PO BOX,SHASTA LAKE,CA,PRIMARY,40.68,-122.40,NA-US-CA-SHASTA LAKE,false,294,522,7182478
96050,STANDARD,KLAMATH RIVER,CA,PRIMARY,41.83,-122.92,NA-US-CA-KLAMATH RIVER,false,,,
94511,PO BOX,BETHEL ISLAND,CA,PRIMARY,38.07,-121.62,NA-US-CA-BETHEL ISLAND,false,1008,1583,27803378
93930,STANDARD,KING CITY,CA,PRIMARY,36.20,-120.94,NA-US-CA-KING CITY,false,6008,12376,192372786
94280,PO BOX,SACRAMENTO,CA,PRIMARY,38.58,-121.49,NA-US-CA-SACRAMENTO,false,,,
95019,STANDARD,FREEDOM,CA,PRIMARY,36.93,-121.78,NA-US-CA-FREEDOM,false,3535,7068,101582066
94109,STANDARD,SAN FRANCISCO,CA,PRIMARY,37.79,-122.42,NA-US-CA-SAN FRANCISCO,false,30286,38763,1860031351
90082,PO BOX,LOS ANGELES,CA,PRIMARY,34.00,-118.27,NA-US-CA-LOS ANGELES,false,,,
95126,STANDARD,SAN JOSE,CA,PRIMARY,37.32,-121.91,NA-US-CA-SAN JOSE,false,14341,23076,841450449
92630,STANDARD,LAKE FOREST,CA,PRIMARY,33.64,-117.67,NA-US-CA-LAKE FOREST,false,28313,50173,1520603567
95203,STANDARD,STOCKTON,CA,PRIMARY,37.95,-121.32,NA-US-CA-STOCKTON,false,5400,9689,155226068
92412,PO BOX,SAN BERNARDINO,CA,PRIMARY,34.08,-117.26,NA-US-CA-SAN BERNARDINO,false,276,443,10625650
95493,STANDARD,WITTER SPRINGS,CA,PRIMARY,39.20,-122.98,NA-US-CA-WITTER SPRINGS,false,,,
92652,PO BOX,LAGUNA BEACH,CA,PRIMARY,33.54,-117.78,NA-US-CA-LAGUNA BEACH,false,872,1216,35978635
92612,STANDARD,IRVINE,CA,PRIMARY,33.63,-117.81,NA-US-CA-IRVINE,false,10564,16945,633383016
92093,UNIQUE,LA JOLLA,CA,PRIMARY,32.88,-117.23,NA-US-CA-LA JOLLA,false,,,
95118,STANDARD,SAN JOSE,CA,PRIMARY,37.25,-121.88,NA-US-CA-SAN JOSE,false,14599,26249,877716441
92202,PO BOX,INDIO,CA,PRIMARY,33.66,-116.29,NA-US-CA-INDIO,false,2178,4277,52861164
93960,STANDARD,SOLEDAD,CA,PRIMARY,36.39,-121.30,NA-US-CA-SOLEDAD,false,6127,12698,216787214
91188,UNIQUE,PASADENA,CA,PRIMARY,34.14,-118.14,NA-US-CA-PASADENA,false,,,
94261,PO BOX,SACRAMENTO,CA,PRIMARY,38.58,-121.49,NA-US-CA-SACRAMENTO,false,,,
91745,STANDARD,HACIENDA HEIGHTS,CA,PRIMARY,34.00,-117.97,NA-US-CA-HACIENDA HEIGHTS,false,24902,44875,1026488190
93667,STANDARD,TOLLHOUSE,CA,PRIMARY,36.96,-119.30,NA-US-CA-TOLLHOUSE,false,982,1864,38484975
94208,PO BOX,SACRAMENTO,CA,PRIMARY,38.58,-121.49,NA-US-CA-SACRAMENTO,false,,,
90502,STANDARD,TORRANCE,CA,PRIMARY,33.83,-118.29,NA-US-CA-TORRANCE,false,8217,14193,359250963
91976,PO BOX,SPRING VALLEY,CA,PRIMARY,32.74,-116.98,NA-US-CA-SPRING VALLEY,false,263,418,7800649
93103,STANDARD,SANTA BARBARA,CA,PRIMARY,34.43,-119.68,NA-US-CA-SANTA BARBARA,false,8204,13621,343916881
93637,STANDARD,MADERA,CA,PRIMARY,36.91,-120.19,NA-US-CA-MADERA,false,13439,26109,439035646
94305,STANDARD,STANFORD,CA,PRIMARY,37.41,-122.17,NA-US-CA-STANFORD,false,3657,5084,258000176
93274,STANDARD,TULARE,CA,PRIMARY,36.18,-119.36,NA-US-CA-TULARE,false,23503,46216,764937072
95467,STANDARD,HIDDEN VALLEY LAKE,CA,PRIMARY,38.80,-122.55,NA-US-CA-HIDDEN VALLEY LAKE,false,2033,3858,90398083
92339,STANDARD,FOREST FALLS,CA,PRIMARY,34.08,-116.90,NA-US-CA-FOREST FALLS,false,465,792,19337018
95603,STANDARD,AUBURN,CA,PRIMARY,38.92,-121.07,NA-US-CA-AUBURN,false,11850,20376,455381388
96041,STANDARD,HAYFORK,CA,PRIMARY,40.50,-123.19,NA-US-CA-HAYFORK,false,862,1501,15890607
92164,PO BOX,SAN DIEGO,CA,PRIMARY,32.74,-117.12,NA-US-CA-SAN DIEGO,false,346,475,9332381
90308,PO BOX,INGLEWOOD,CA,PRIMARY,33.95,-118.35,NA-US-CA-INGLEWOOD,false,272,423,8637854
95501,STANDARD,EUREKA,CA,PRIMARY,40.80,-124.15,NA-US-CA-EUREKA,false,8979,14321,230240510
92127,STANDARD,SAN DIEGO,CA,PRIMARY,33.02,-117.12,NA-US-CA-SAN DIEGO,false,15347,30553,1367185444
92231,STANDARD,CALEXICO,CA,PRIMARY,32.69,-115.51,NA-US-CA-CALEXICO,false,22595,46865,472316483
95229,PO BOX,DOUGLAS FLAT,CA,PRIMARY,38.11,-120.45,NA-US-CA-DOUGLAS FLAT,false,,,
94206,PO BOX,SACRAMENTO,CA,PRIMARY,38.49,-121.45,NA-US-CA-SACRAMENTO,false,,,
91387,STANDARD,CANYON COUNTRY,CA,PRIMARY,34.40,-118.40,NA-US-CA-CANYON COUNTRY,false,16430,30434,934174269
93203,STANDARD,ARVIN,CA,PRIMARY,35.08,-118.79,NA-US-CA-ARVIN,false,6827,14589,151542797
93943,STANDARD,MONTEREY,CA,PRIMARY,36.57,-121.83,NA-US-CA-MONTEREY,false,,,
91765,STANDARD,DIAMOND BAR,CA,PRIMARY,33.99,-117.81,NA-US-CA-DIAMOND BAR,false,22546,41453,1180747994
95419,PO BOX,CAMP MEEKER,CA,PRIMARY,38.42,-122.95,NA-US-CA-CAMP MEEKER,false,,,
93306,STANDARD,BAKERSFIELD,CA,PRIMARY,35.43,-118.83,NA-US-CA-BAKERSFIELD,false,23082,43761,832502566
92544,STANDARD,HEMET,CA,PRIMARY,33.64,-116.83,NA-US-CA-HEMET,false,16542,30633,544762702
92859,PO BOX,ORANGE,CA,PRIMARY,33.80,-117.78,NA-US-CA-ORANGE,false,,,
93441,PO BOX,LOS OLIVOS,CA,PRIMARY,34.71,-120.01,NA-US-CA-LOS OLIVOS,false,721,1318,35251316
95325,STANDARD,HORNITOS,CA,PRIMARY,37.43,-120.24,NA-US-CA-HORNITOS,false,,,
95970,STANDARD,PRINCETON,CA,PRIMARY,39.41,-122.04,NA-US-CA-PRINCETON,false,,,
93433,STANDARD,GROVER BEACH,CA,PRIMARY,35.12,-120.61,NA-US-CA-GROVER BEACH,false,5389,8974,185105557
90093,PO BOX,LOS ANGELES,CA,PRIMARY,34.09,-118.33,NA-US-CA-LOS ANGELES,false,338,439,11587988
92261,PO BOX,PALM DESERT,CA,PRIMARY,33.61,-116.42,NA-US-CA-PALM DESERT,false,1163,1814,30976723
91115,PO BOX,PASADENA,CA,PRIMARY,34.13,-118.15,NA-US-CA-PASADENA,false,,,
91761,STANDARD,ONTARIO,CA,PRIMARY,34.02,-117.58,NA-US-CA-ONTARIO,false,23606,44442,897581854
94262,PO BOX,SACRAMENTO,CA,PRIMARY,38.58,-121.49,NA-US-CA-SACRAMENTO,false,,,
93590,PO BOX,PALMDALE,CA,PRIMARY,34.57,-118.08,NA-US-CA-PALMDALE,false,832,1421,26034790
95304,STANDARD,TRACY,CA,PRIMARY,37.69,-121.39,NA-US-CA-TRACY,false,4587,8986,257477279
90748,PO BOX,WILMINGTON,CA,PRIMARY,33.78,-118.26,NA-US-CA-WILMINGTON,false,622,1135,18797877
93888,UNIQUE,FRESNO,CA,PRIMARY,36.75,-119.67,NA-US-CA-FRESNO,false,1491,1887,7767673
94589,STANDARD,VALLEJO,CA,PRIMARY,38.13,-122.25,NA-US-CA-VALLEJO,false,12371,22142,445345451
93528,PO BOX,JOHANNESBURG,CA,PRIMARY,35.36,-117.64,NA-US-CA-JOHANNESBURG,false,,,
94544,STANDARD,HAYWARD,CA,PRIMARY,37.63,-122.04,NA-US-CA-HAYWARD,false,30230,55190,1168893361
91404,PO BOX,VAN NUYS,CA,PRIMARY,34.17,-118.43,NA-US-CA-VAN NUYS,false,,,
94941,STANDARD,MILL VALLEY,CA,PRIMARY,37.89,-122.56,NA-US-CA-MILL VALLEY,false,15121,25742,1448126181
95654,PO BOX,MARTELL,CA,PRIMARY,38.36,-120.79,NA-US-CA-MARTELL,false,,,
93560,STANDARD,ROSAMOND,CA,PRIMARY,34.92,-118.40,NA-US-CA-ROSAMOND,false,7191,13552,290978844
92386,PO BOX,SUGARLOAF,CA,PRIMARY,34.24,-116.82,NA-US-CA-SUGARLOAF,false,833,1396,18157666
90067,STANDARD,LOS ANGELES,CA,PRIMARY,34.05,-118.41,NA-US-CA-LOS ANGELES,false,3606,5575,1433083360
95038,PO BOX,MORGAN HILL,CA,PRIMARY,37.08,-121.61,NA-US-CA-MORGAN HILL,false,1061,1884,43353478
92648,STANDARD,HUNTINGTON BEACH,CA,PRIMARY,33.67,-118.00,NA-US-CA-HUNTINGTON BEACH,false,23092,36978,1545291889
90670,STANDARD,SANTA FE SPRINGS,CA,PRIMARY,33.92,-118.06,NA-US-CA-SANTA FE SPRINGS,false,6889,12163,260091846
93620,STANDARD,DOS PALOS,CA,PRIMARY,37.07,-120.63,NA-US-CA-DOS PALOS,false,3209,6358,87180786
96054,PO BOX,LOOKOUT,CA,PRIMARY,41.30,-121.10,NA-US-CA-LOOKOUT,false,,,
90608,PO BOX,WHITTIER,CA,PRIMARY,33.97,-118.02,NA-US-CA-WHITTIER,false,366,579,11958695
94622,UNIQUE,OAKLAND,CA,PRIMARY,37.74,-122.19,NA-US-CA-OAKLAND,false,,,
92152,UNIQUE,SAN DIEGO,CA,PRIMARY,32.69,-117.24,NA-US-CA-SAN DIEGO,false,,,
93624,PO BOX,FIVE POINTS,CA,PRIMARY,36.38,-120.13,NA-US-CA-FIVE POINTS,false,461,1035,10981268
92552,PO BOX,MORENO VALLEY,CA,PRIMARY,33.92,-117.24,NA-US-CA-MORENO VALLEY,false,1274,2209,40390418
90403,STANDARD,SANTA MONICA,CA,PRIMARY,34.03,-118.49,NA-US-CA-SANTA MONICA,false,14444,20118,998540306
94118,STANDARD,SAN FRANCISCO,CA,PRIMARY,37.78,-122.46,NA-US-CA-SAN FRANCISCO,false,20709,30630,1578838639
91024,STANDARD,SIERRA MADRE,CA,PRIMARY,34.20,-118.05,NA-US-CA-SIERRA MADRE,false,5386,8990,349364639
95051,STANDARD,SANTA CLARA,CA,PRIMARY,37.35,-121.98,NA-US-CA-SANTA CLARA,false,25701,45397,1691551266
95721,PO BOX,ECHO LAKE,CA,PRIMARY,38.84,-120.07,NA-US-CA-ECHO LAKE,false,,,
90026,STANDARD,LOS ANGELES,CA,PRIMARY,34.07,-118.26,NA-US-CA-LOS ANGELES,false,29721,46916,954653353
92522,UNIQUE,RIVERSIDE,CA,PRIMARY,33.94,-117.39,NA-US-CA-RIVERSIDE,false,,,
95157,PO BOX,SAN JOSE,CA,PRIMARY,37.30,-121.97,NA-US-CA-SAN JOSE,false,373,597,20766901
90088,UNIQUE,LOS ANGELES,CA,PRIMARY,34.05,-118.26,NA-US-CA-LOS ANGELES,false,,,
91371,UNIQUE,WOODLAND HILLS,CA,PRIMARY,34.18,-118.57,NA-US-CA-WOODLAND HILLS,false,,,
95537,PO BOX,FIELDS LANDING,CA,PRIMARY,40.72,-124.21,NA-US-CA-FIELDS LANDING,false,,,
92235,PO BOX,CATHEDRAL CITY,CA,PRIMARY,33.77,-116.46,NA-US-CA-CATHEDRAL CITY,false,1184,2167,28060517
94301,STANDARD,PALO ALTO,CA,PRIMARY,37.44,-122.15,NA-US-CA-PALO ALTO,false,8765,14401,1456930509
94014,STANDARD,DALY CITY,CA,PRIMARY,37.68,-122.43,NA-US-CA-DALY CITY,false,21709,36989,878573056
91345,STANDARD,MISSION HILLS,CA,PRIMARY,34.27,-118.45,NA-US-CA-MISSION HILLS,false,7918,14142,285279199
95116,STANDARD,SAN JOSE,CA,PRIMARY,37.35,-121.85,NA-US-CA-SAN JOSE,false,18689,35357,623888214
94297,PO BOX,SACRAMENTO,CA,PRIMARY,38.55,-121.49,NA-US-CA-SACRAMENTO,false,,,
91222,PO BOX,GLENDALE,CA,PRIMARY,34.16,-118.26,NA-US-CA-GLENDALE,false,,,
95717,PO BOX,GOLD RUN,CA,PRIMARY,39.13,-120.83,NA-US-CA-GOLD RUN,false,,,
93302,PO BOX,BAKERSFIELD,CA,PRIMARY,35.37,-119.02,NA-US-CA-BAKERSFIELD,false,392,635,11740659
95838,STANDARD,SACRAMENTO,CA,PRIMARY,38.64,-121.44,NA-US-CA-SACRAMENTO,false,12940,23781,351399198
93014,PO BOX,CARPINTERIA,CA,PRIMARY,34.39,-119.51,NA-US-CA-CARPINTERIA,false,670,1136,24073649
91914,STANDARD,CHULA VISTA,CA,PRIMARY,32.66,-116.94,NA-US-CA-CHULA VISTA,false,5808,12078,396657614
90260,STANDARD,LAWNDALE,CA,PRIMARY,33.88,-118.35,NA-US-CA-LAWNDALE,false,14318,25618,468058114
95703,STANDARD,APPLEGATE,CA,PRIMARY,39.00,-120.99,NA-US-CA-APPLEGATE,false,833,1447,31795139
92276,STANDARD,THOUSAND PALMS,CA,PRIMARY,33.80,-116.36,NA-US-CA-THOUSAND PALMS,false,3064,5380,70593564
94028,STANDARD,PORTOLA VALLEY,CA,PRIMARY,37.37,-122.21,NA-US-CA-PORTOLA VALLEY,false,3484,6281,667702023
92324,STANDARD,COLTON,CA,PRIMARY,34.01,-117.27,NA-US-CA-COLTON,false,21783,40776,682129498
95697,PO BOX,YOLO,CA,PRIMARY,38.73,-121.81,NA-US-CA-YOLO,false,346,690,10496889
95497,PO BOX,THE SEA RANCH,CA,PRIMARY,38.70,-123.44,NA-US-CA-THE SEA RANCH,false,256,411,7968939
95042,PO BOX,NEW ALMADEN,CA,PRIMARY,37.17,-121.82,NA-US-CA-NEW ALMADEN,false,,,
93604,STANDARD,BASS LAKE,CA,PRIMARY,37.38,-119.51,NA-US-CA-BASS LAKE,false,425,662,9548190
92074,PO BOX,POWAY,CA,PRIMARY,32.95,-117.03,NA-US-CA-POWAY,false,534,881,22438599
90254,STANDARD,HERMOSA BEACH,CA,PRIMARY,33.86,-118.39,NA-US-CA-HERMOSA BEACH,false,11095,16137,943419320
90310,PO BOX,INGLEWOOD,CA,PRIMARY,33.93,-118.32,NA-US-CA-INGLEWOOD,false,,,
90831,STANDARD,LONG BEACH,CA,PRIMARY,33.76,-118.20,NA-US-CA-LONG BEACH,false,,,
94259,PO BOX,SACRAMENTO,CA,PRIMARY,38.55,-121.49,NA-US-CA-SACRAMENTO,false,,,
95552,STANDARD,MAD RIVER,CA,PRIMARY,40.37,-123.44,NA-US-CA-MAD RIVER,false,,,
93602,STANDARD,AUBERRY,CA,PRIMARY,37.00,-119.15,NA-US-CA-AUBERRY,false,1507,2778,55603316
94115,STANDARD,SAN FRANCISCO,CA,PRIMARY,37.78,-122.43,NA-US-CA-SAN FRANCISCO,false,17978,24064,1423434681
94015,STANDARD,DALY CITY,CA,PRIMARY,37.67,-122.47,NA-US-CA-DALY CITY,false,29496,49650,1324909193
93240,STANDARD,LAKE ISABELLA,CA,PRIMARY,35.64,-118.46,NA-US-CA-LAKE ISABELLA,false,2310,4066,54854705
93717,PO BOX,FRESNO,CA,PRIMARY,36.73,-119.78,NA-US-CA-FRESNO,false,,,
93457,PO BOX,SANTA MARIA,CA,PRIMARY,34.86,-120.43,NA-US-CA-SANTA MARIA,false,371,621,13532480
94965,STANDARD,SAUSALITO,CA,PRIMARY,37.84,-122.53,NA-US-CA-SAUSALITO,false,6697,9393,426240692
93644,STANDARD,OAKHURST,CA,PRIMARY,37.40,-119.61,NA-US-CA-OAKHURST,false,4156,7289,117084932
95018,STANDARD,FELTON,CA,PRIMARY,37.08,-122.05,NA-US-CA-FELTON,false,3682,6114,172777517
94947,STANDARD,NOVATO,CA,PRIMARY,38.10,-122.63,NA-US-CA-NOVATO,false,11483,19940,604889691
93553,STANDARD,PEARBLOSSOM,CA,PRIMARY,34.48,-117.88,NA-US-CA-PEARBLOSSOM,false,790,1419,28299945
92163,PO BOX,SAN DIEGO,CA,PRIMARY,32.74,-117.16,NA-US-CA-SAN DIEGO,false,783,956,28284443
91205,STANDARD,GLENDALE,CA,PRIMARY,34.13,-118.24,NA-US-CA-GLENDALE,false,16129,27150,457279692
92258,PO BOX,NORTH PALM SPRINGS,CA,PRIMARY,33.90,-116.56,NA-US-CA-NORTH PALM SPRINGS,false,328,594,6251042
95658,STANDARD,NEWCASTLE,CA,PRIMARY,38.87,-121.15,NA-US-CA-NEWCASTLE,false,3092,5562,136983650
92211,STANDARD,PALM DESERT,CA,PRIMARY,33.77,-116.34,NA-US-CA-PALM DESERT,false,11167,18234,294398455
91124,UNIQUE,PASADENA,CA,PRIMARY,34.14,-118.15,NA-US-CA-PASADENA,false,,,
92590,STANDARD,TEMECULA,CA,PRIMARY,33.48,-117.22,NA-US-CA-TEMECULA,false,1412,2592,68282708
95246,STANDARD,MOUNTAIN RANCH,CA,PRIMARY,38.23,-120.49,NA-US-CA-MOUNTAIN RANCH,false,832,1401,22405016
93270,STANDARD,TERRA BELLA,CA,PRIMARY,35.93,-119.03,NA-US-CA-TERRA BELLA,false,2227,4678,55076419
90651,PO BOX,NORWALK,CA,PRIMARY,33.90,-118.07,NA-US-CA-NORWALK,false,580,1002,16842435
93023,STANDARD,OJAI,CA,PRIMARY,34.51,-119.29,NA-US-CA-OJAI,false,9060,15623,356459411
95692,STANDARD,WHEATLAND,CA,PRIMARY,39.04,-121.39,NA-US-CA-WHEATLAND,false,2058,3917,82547125
92332,STANDARD,ESSEX,CA,PRIMARY,34.96,-115.31,NA-US-CA-ESSEX,false,,,
95006,STANDARD,BOULDER CREEK,CA,PRIMARY,37.16,-122.15,NA-US-CA-BOULDER CREEK,false,4253,7182,260220173
90275,STANDARD,RANCHO PALOS VERDES,CA,PRIMARY,33.75,-118.31,NA-US-CA-RANCHO PALOS VERDES,false,19356,35895,1433574956
90801,PO BOX,LONG BEACH,CA,PRIMARY,33.77,-118.18,NA-US-CA-LONG BEACH,false,1208,1786,40529668
92333,PO BOX,FAWNSKIN,CA,PRIMARY,34.27,-116.94,NA-US-CA-FAWNSKIN,false,252,429,7587787
95254,PO BOX,WALLACE,CA,PRIMARY,38.19,-120.95,NA-US-CA-WALLACE,false,346,646,15667866
95503,STANDARD,EUREKA,CA,PRIMARY,40.71,-124.11,NA-US-CA-EUREKA,false,9719,16695,297836600
92046,PO BOX,ESCONDIDO,CA,PRIMARY,33.12,-117.10,NA-US-CA-ESCONDIDO,false,965,1593,33131034
94080,STANDARD,SOUTH SAN FRANCISCO,CA,PRIMARY,37.65,-122.42,NA-US-CA-SOUTH SAN FRANCISCO,false,30695,53242,1494580412
92337,STANDARD,FONTANA,CA,PRIMARY,34.05,-117.46,NA-US-CA-FONTANA,false,14235,27988,551141323
94525,STANDARD,CROCKETT,CA,PRIMARY,38.04,-122.23,NA-US-CA-CROCKETT,false,1605,2510,68559702
95939,STANDARD,ELK CREEK,CA,PRIMARY,39.54,-122.57,NA-US-CA-ELK CREEK,false,,,
92110,STANDARD,SAN DIEGO,CA,PRIMARY,32.77,-117.18,NA-US-CA-SAN DIEGO,false,12108,18233,489992429
94966,PO BOX,SAUSALITO,CA,PRIMARY,37.86,-122.49,NA-US-CA-SAUSALITO,false,635,831,22968416
91706,STANDARD,BALDWIN PARK,CA,PRIMARY,34.09,-117.96,NA-US-CA-BALDWIN PARK,false,30340,57507,907202223
93286,STANDARD,WOODLAKE,CA,PRIMARY,36.46,-119.10,NA-US-CA-WOODLAKE,false,3204,6406,86971832
93435,PO BOX,HARMONY,CA,PRIMARY,35.50,-121.03,NA-US-CA-HARMONY,false,,,
92838,PO BOX,FULLERTON,CA,PRIMARY,33.89,-117.93,NA-US-CA-FULLERTON,false,260,407,11169831
92658,PO BOX,NEWPORT BEACH,CA,PRIMARY,33.63,-117.86,NA-US-CA-NEWPORT BEACH,false,1360,2015,85396822
92619,PO BOX,IRVINE,CA,PRIMARY,33.66,-117.76,NA-US-CA-IRVINE,false,880,1410,54604995
93202,STANDARD,ARMONA,CA,PRIMARY,36.31,-119.71,NA-US-CA-ARMONA,false,1548,3054,41755452
92309,STANDARD,BAKER,CA,PRIMARY,35.31,-116.04,NA-US-CA-BAKER,false,298,597,6975953
94294,PO BOX,SACRAMENTO,CA,PRIMARY,38.55,-121.49,NA-US-CA-SACRAMENTO,false,,,
92365,STANDARD,NEWBERRY SPRINGS,CA,PRIMARY,34.85,-116.51,NA-US-CA-NEWBERRY SPRINGS,false,812,1494,23914939
91906,STANDARD,CAMPO,CA,PRIMARY,32.68,-116.47,NA-US-CA-CAMPO,false,1282,2441,49118662
96075,STANDARD,PAYNES CREEK,CA,PRIMARY,40.35,-121.86,NA-US-CA-PAYNES CREEK,false,,,
92119,STANDARD,SAN DIEGO,CA,PRIMARY,32.81,-117.03,NA-US-CA-SAN DIEGO,false,11441,19213,499151989
95485,STANDARD,UPPER LAKE,CA,PRIMARY,39.26,-122.96,NA-US-CA-UPPER LAKE,false,1112,1933,27555674
94950,PO BOX,OLEMA,CA,PRIMARY,38.02,-122.75,NA-US-CA-OLEMA,false,,,
92096,UNIQUE,SAN MARCOS,CA,PRIMARY,33.13,-117.17,NA-US-CA-SAN MARCOS,false,,,
93105,STANDARD,SANTA BARBARA,CA,PRIMARY,34.01,-119.72,NA-US-CA-SANTA BARBARA,false,12306,19652,560017615
94572,STANDARD,RODEO,CA,PRIMARY,38.03,-122.23,NA-US-CA-RODEO,false,3769,6725,160846459
94929,PO BOX,DILLON BEACH,CA,PRIMARY,38.24,-122.95,NA-US-CA-DILLON BEACH,false,,,
91006,STANDARD,ARCADIA,CA,PRIMARY,34.13,-118.02,NA-US-CA-ARCADIA,false,15278,28021,866377822
92359,STANDARD,MENTONE,CA,PRIMARY,34.10,-117.04,NA-US-CA-MENTONE,false,3420,6159,131980537
92014,STANDARD,DEL MAR,CA,PRIMARY,32.96,-117.25,NA-US-CA-DEL MAR,false,7681,12635,653566215
92562,STANDARD,MURRIETA,CA,PRIMARY,33.54,-117.33,NA-US-CA-MURRIETA,false,23762,45927,1191210837
95219,STANDARD,STOCKTON,CA,PRIMARY,38.01,-121.38,NA-US-CA-STOCKTON,false,11646,21236,671062232
95127,STANDARD,SAN JOSE,CA,PRIMARY,37.37,-121.75,NA-US-CA-SAN JOSE,false,25224,46641,1064355743
93065,STANDARD,SIMI VALLEY,CA,PRIMARY,34.25,-118.78,NA-US-CA-SIMI VALLEY,false,32405,59551,1888366698
92198,PO BOX,SAN DIEGO,CA,PRIMARY,32.99,-117.07,NA-US-CA-SAN DIEGO,false,629,1033,33996926
95701,PO BOX,ALTA,CA,PRIMARY,39.21,-120.79,NA-US-CA-ALTA,false,425,787,15443845
93241,STANDARD,LAMONT,CA,PRIMARY,35.25,-118.91,NA-US-CA-LAMONT,false,5521,11327,118728169
93267,STANDARD,STRATHMORE,CA,PRIMARY,36.14,-119.09,NA-US-CA-STRATHMORE,false,2198,4456,54385617
92145,UNIQUE,SAN DIEGO,CA,PRIMARY,32.87,-117.15,NA-US-CA-SAN DIEGO,false,1430,1619,30774575
95417,STANDARD,BRANSCOMB,CA,PRIMARY,39.69,-123.61,NA-US-CA-BRANSCOMB,false,,,
91507,PO BOX,BURBANK,CA,PRIMARY,34.16,-118.34,NA-US-CA-BURBANK,false,,,
91305,PO BOX,CANOGA PARK,CA,PRIMARY,34.20,-118.60,NA-US-CA-CANOGA PARK,false,,,
90305,STANDARD,INGLEWOOD,CA,PRIMARY,33.95,-118.33,NA-US-CA-INGLEWOOD,false,7493,12037,277201510
95966,STANDARD,OROVILLE,CA,PRIMARY,39.45,-121.39,NA-US-CA-OROVILLE,false,11010,19686,293135493
93009,UNIQUE,VENTURA,CA,PRIMARY,34.26,-119.21,NA-US-CA-VENTURA,false,,,
93440,PO BOX,LOS ALAMOS,CA,PRIMARY,34.73,-120.24,NA-US-CA-LOS ALAMOS,false,785,1470,29160945
92138,PO BOX,SAN DIEGO,CA,PRIMARY,32.76,-117.20,NA-US-CA-SAN DIEGO,false,1695,2375,70056676
95247,STANDARD,MURPHYS,CA,PRIMARY,38.14,-120.45,NA-US-CA-MURPHYS,false,2057,3550,58390994
95840,UNIQUE,SACRAMENTO,CA,PRIMARY,38.58,-121.49,NA-US-CA-SACRAMENTO,false,,,
90508,PO BOX,TORRANCE,CA,PRIMARY,33.83,-118.31,NA-US-CA-TORRANCE,false,,,
90002,STANDARD,LOS ANGELES,CA,PRIMARY,33.94,-118.24,NA-US-CA-LOS ANGELES,false,16133,30920,352278879
94709,STANDARD,BERKELEY,CA,PRIMARY,37.87,-122.26,NA-US-CA-BERKELEY,false,5229,6899,216784666
92869,STANDARD,ORANGE,CA,PRIMARY,33.79,-117.78,NA-US-CA-ORANGE,false,17106,31173,929164592
92022,PO BOX,EL CAJON,CA,PRIMARY,32.73,-116.91,NA-US-CA-EL CAJON,false,731,1200,21914738
91108,STANDARD,SAN MARINO,CA,PRIMARY,34.12,-118.11,NA-US-CA-SAN MARINO,false,6783,12520,720791687
93004,STANDARD,VENTURA,CA,PRIMARY,34.27,-119.16,NA-US-CA-VENTURA,false,12882,23167,609355820
91771,UNIQUE,ROSEMEAD,CA,PRIMARY,34.06,-118.08,NA-US-CA-ROSEMEAD,false,,,
91364,STANDARD,WOODLAND HILLS,CA,PRIMARY,34.15,-118.60,NA-US-CA-WOODLAND HILLS,false,12805,21888,1029950393
95115,PO BOX,SAN JOSE,CA,PRIMARY,37.30,-121.89,NA-US-CA-SAN JOSE,false,,,
90062,STANDARD,LOS ANGELES,CA,PRIMARY,34.00,-118.30,NA-US-CA-LOS ANGELES,false,12548,22057,300291630
93208,PO BOX,CAMP NELSON,CA,PRIMARY,36.06,-118.58,NA-US-CA-CAMP NELSON,false,,,
94299,UNIQUE,SACRAMENTO,CA,PRIMARY,38.56,-121.46,NA-US-CA-SACRAMENTO,false,,,
95618,STANDARD,DAVIS,CA,PRIMARY,38.53,-121.66,NA-US-CA-DAVIS,false,9917,17799,645179308
93030,STANDARD,OXNARD,CA,PRIMARY,34.19,-119.17,NA-US-CA-OXNARD,false,23624,45834,782668499
90018,STANDARD,LOS ANGELES,CA,PRIMARY,34.02,-118.31,NA-US-CA-LOS ANGELES,false,19138,33029,480700270
90639,UNIQUE,LA MIRADA,CA,PRIMARY,33.90,-118.01,NA-US-CA-LA MIRADA,false,,,
95135,STANDARD,SAN JOSE,CA,PRIMARY,37.25,-121.67,NA-US-CA-SAN JOSE,false,8898,17221,724659285
91802,PO BOX,ALHAMBRA,CA,PRIMARY,34.09,-118.12,NA-US-CA-ALHAMBRA,false,1054,1647,32872646
95469,STANDARD,POTTER VALLEY,CA,PRIMARY,39.37,-123.02,NA-US-CA-POTTER VALLEY,false,780,1399,21315563
91077,PO BOX,ARCADIA,CA,PRIMARY,34.12,-118.05,NA-US-CA-ARCADIA,false,273,455,7583604
95488,STANDARD,WESTPORT,CA,PRIMARY,39.72,-123.77,NA-US-CA-WESTPORT,false,,,
95569,STANDARD,REDCREST,CA,PRIMARY,40.37,-123.84,NA-US-CA-REDCREST,false,,,
95980,PO BOX,STORRIE,CA,PRIMARY,39.91,-121.33,NA-US-CA-STORRIE,false,,,
92242,STANDARD,EARP,CA,PRIMARY,34.15,-114.33,NA-US-CA-EARP,false,485,796,8350531
92831,STANDARD,FULLERTON,CA,PRIMARY,33.87,-117.89,NA-US-CA-FULLERTON,false,14197,24136,617690764
90740,STANDARD,SEAL BEACH,CA,PRIMARY,33.75,-118.07,NA-US-CA-SEAL BEACH,false,13373,20646,582293001
92114,STANDARD,SAN DIEGO,CA,PRIMARY,32.71,-117.05,NA-US-CA-SAN DIEGO,false,27373,50254,875844144
91804,STANDARD,ALHAMBRA,CA,PRIMARY,34.09,-118.12,NA-US-CA-ALHAMBRA,false,,,
90501,STANDARD,TORRANCE,CA,PRIMARY,33.83,-118.31,NA-US-CA-TORRANCE,false,18738,33170,808795012
92803,PO BOX,ANAHEIM,CA,PRIMARY,33.84,-117.93,NA-US-CA-ANAHEIM,false,1000,1783,29420045
94289,PO BOX,SACRAMENTO,CA,PRIMARY,38.58,-121.49,NA-US-CA-SACRAMENTO,false,,,
93933,STANDARD,MARINA,CA,PRIMARY,36.67,-121.79,NA-US-CA-MARINA,false,9605,16444,365857900
94296,PO BOX,SACRAMENTO,CA,PRIMARY,38.57,-121.50,NA-US-CA-SACRAMENTO,false,,,
95637,STANDARD,GUINDA,CA,PRIMARY,38.80,-122.18,NA-US-CA-GUINDA,false,,,
92113,STANDARD,SAN DIEGO,CA,PRIMARY,32.69,-117.11,NA-US-CA-SAN DIEGO,false,16691,32148,388749046
95404,STANDARD,SANTA ROSA,CA,PRIMARY,38.45,-122.68,NA-US-CA-SANTA ROSA,false,17643,29799,818556211
95741,PO BOX,RANCHO CORDOVA,CA,PRIMARY,38.58,-121.30,NA-US-CA-RANCHO CORDOVA,false,883,1400,32340519
92028,STANDARD,FALLBROOK,CA,PRIMARY,33.39,-117.29,NA-US-CA-FALLBROOK,false,19199,35647,741748432
95212,STANDARD,STOCKTON,CA,PRIMARY,38.04,-121.20,NA-US-CA-STOCKTON,false,9518,18519,396977548
95031,PO BOX,LOS GATOS,CA,PRIMARY,37.12,-121.93,NA-US-CA-LOS GATOS,false,953,1445,65550767
90021,STANDARD,LOS ANGELES,CA,PRIMARY,34.03,-118.24,NA-US-CA-LOS ANGELES,false,1075,1621,41457695
92812,PO BOX,ANAHEIM,CA,PRIMARY,33.81,-117.92,NA-US-CA-ANAHEIM,false,573,965,18121668
92504,STANDARD,RIVERSIDE,CA,PRIMARY,33.90,-117.40,NA-US-CA-RIVERSIDE,false,20774,37665,723697102
94924,STANDARD,BOLINAS,CA,PRIMARY,37.94,-122.73,NA-US-CA-BOLINAS,false,765,1151,20416715
95866,PO BOX,SACRAMENTO,CA,PRIMARY,38.59,-121.40,NA-US-CA-SACRAMENTO,false,369,569,11591443
92143,PO BOX,SAN YSIDRO,CA,PRIMARY,32.56,-116.97,NA-US-CA-SAN YSIDRO,false,1553,2978,36917508
91101,STANDARD,PASADENA,CA,PRIMARY,34.14,-118.13,NA-US-CA-PASADENA,false,9227,13258,497848614
93279,PO BOX,VISALIA,CA,PRIMARY,36.32,-119.29,NA-US-CA-VISALIA,false,640,1162,19450335
96047,STANDARD,IGO,CA,PRIMARY,40.46,-122.70,NA-US-CA-IGO,false,406,708,11522345
92659,PO BOX,NEWPORT BEACH,CA,PRIMARY,33.62,-117.92,NA-US-CA-NEWPORT BEACH,false,802,1126,34666654
96080,STANDARD,RED BLUFF,CA,PRIMARY,40.13,-122.43,NA-US-CA-RED BLUFF,false,11729,21073,338730317
92530,STANDARD,LAKE ELSINORE,CA,PRIMARY,33.68,-117.37,NA-US-CA-LAKE ELSINORE,false,17339,33145,621516645
91306,STANDARD,WINNETKA,CA,PRIMARY,34.20,-118.57,NA-US-CA-WINNETKA,false,19212,34013,699795640
92274,STANDARD,THERMAL,CA,PRIMARY,33.48,-116.10,NA-US-CA-THERMAL,false,5397,11251,119120701
95551,STANDARD,LOLETA,CA,PRIMARY,40.68,-124.22,NA-US-CA-LOLETA,false,611,1088,17275172
93245,STANDARD,LEMOORE,CA,PRIMARY,36.29,-119.82,NA-US-CA-LEMOORE,false,13839,26596,494647489
95159,PO BOX,SAN JOSE,CA,PRIMARY,37.31,-121.93,NA-US-CA-SAN JOSE,false,909,1393,35355108
95428,STANDARD,COVELO,CA,PRIMARY,39.82,-123.16,NA-US-CA-COVELO,false,781,1328,14228182
95940,PO BOX,FEATHER FALLS,CA,PRIMARY,39.51,-121.55,NA-US-CA-FEATHER FALLS,false,,,
91778,PO BOX,SAN GABRIEL,CA,PRIMARY,34.10,-118.10,NA-US-CA-SAN GABRIEL,false,627,952,16039869
94591,STANDARD,VALLEJO,CA,PRIMARY,38.11,-122.20,NA-US-CA-VALLEJO,false,24295,42764,1188432734
95635,STANDARD,GREENWOOD,CA,PRIMARY,38.92,-120.89,NA-US-CA-GREENWOOD,false,535,958,21255461
95640,STANDARD,IONE,CA,PRIMARY,38.33,-120.88,NA-US-CA-IONE,false,3219,5808,124450897
95380,STANDARD,TURLOCK,CA,PRIMARY,37.47,-120.85,NA-US-CA-TURLOCK,false,14994,28101,451902227
92802,STANDARD,ANAHEIM,CA,PRIMARY,33.81,-117.91,NA-US-CA-ANAHEIM,false,15923,29583,522907313
92030,PO BOX,ESCONDIDO,CA,PRIMARY,33.13,-117.05,NA-US-CA-ESCONDIDO,false,734,1258,21725209
94803,STANDARD,EL SOBRANTE,CA,PRIMARY,37.95,-122.26,NA-US-CA-EL SOBRANTE,false,11581,20102,530254791
91125,UNIQUE,PASADENA,CA,PRIMARY,34.13,-118.12,NA-US-CA-PASADENA,false,296,330,7541135
91202,STANDARD,GLENDALE,CA,PRIMARY,34.16,-118.26,NA-US-CA-GLENDALE,false,10405,17687,476019849
95982,STANDARD,SUTTER,CA,PRIMARY,39.18,-121.81,NA-US-CA-SUTTER,false,1447,2736,58659895
94520,STANDARD,CONCORD,CA,PRIMARY,38.00,-122.03,NA-US-CA-CONCORD,false,14769,26131,505062115
93101,STANDARD,SANTA BARBARA,CA,PRIMARY,34.41,-119.70,NA-US-CA-SANTA BARBARA,false,13826,21615,498686458
95354,STANDARD,MODESTO,CA,PRIMARY,37.63,-120.97,NA-US-CA-MODESTO,false,9199,16332,295912743
96065,STANDARD,MONTGOMERY CREEK,CA,PRIMARY,40.86,-121.91,NA-US-CA-MONTGOMERY CREEK,false,,,
92186,PO BOX,SAN DIEGO,CA,PRIMARY,32.74,-117.20,NA-US-CA-SAN DIEGO,false,,,
95553,PO BOX,MIRANDA,CA,PRIMARY,40.21,-123.86,NA-US-CA-MIRANDA,false,341,585,5135264
95364,STANDARD,PINECREST,CA,PRIMARY,38.28,-119.82,NA-US-CA-PINECREST,false,,,
92418,UNIQUE,SAN BERNARDINO,CA,PRIMARY,34.10,-117.29,NA-US-CA-SAN BERNARDINO,false,,,
95172,PO BOX,SAN JOSE,CA,PRIMARY,37.33,-121.88,NA-US-CA-SAN JOSE,false,,,
94304,STANDARD,PALO ALTO,CA,PRIMARY,37.37,-122.18,NA-US-CA-PALO ALTO,false,1780,2781,144669287
94595,STANDARD,WALNUT CREEK,CA,PRIMARY,37.86,-122.07,NA-US-CA-WALNUT CREEK,false,9889,14774,333690603
94949,STANDARD,NOVATO,CA,PRIMARY,38.06,-122.54,NA-US-CA-NOVATO,false,8237,14246,477070476
95140,STANDARD,MOUNT HAMILTON,CA,PRIMARY,37.36,-121.67,NA-US-CA-MOUNT HAMILTON,false,,,
93242,STANDARD,LATON,CA,PRIMARY,36.43,-119.69,NA-US-CA-LATON,false,1340,2736,37614498
91382,STANDARD,SANTA CLARITA,CA,PRIMARY,34.41,-118.51,NA-US-CA-SANTA CLARITA,false,,,
94506,STANDARD,DANVILLE,CA,PRIMARY,37.78,-121.88,NA-US-CA-DANVILLE,false,10418,20743,1408422912
90304,STANDARD,INGLEWOOD,CA,PRIMARY,33.93,-118.36,NA-US-CA-INGLEWOOD,false,10651,20300,265698564
92660,STANDARD,NEWPORT BEACH,CA,PRIMARY,33.62,-117.87,NA-US-CA-NEWPORT BEACH,false,17493,28529,1587500494
94293,PO BOX,SACRAMENTO,CA,PRIMARY,38.55,-121.49,NA-US-CA-SACRAMENTO,false,,,
95759,PO BOX,ELK GROVE,CA,PRIMARY,38.40,-121.37,NA-US-CA-ELK GROVE,false,768,1325,28631213
96085,STANDARD,SCOTT BAR,CA,PRIMARY,41.73,-123.04,NA-US-CA-SCOTT BAR,false,,,
95439,STANDARD,FULTON,CA,PRIMARY,38.49,-122.77,NA-US-CA-FULTON,false,460,838,15641513
90261,STANDARD,LAWNDALE,CA,PRIMARY,33.89,-118.37,NA-US-CA-LAWNDALE,false,,,
92331,PO BOX,FONTANA,CA,PRIMARY,34.06,-117.44,NA-US-CA-FONTANA,false,,,
93611,STANDARD,CLOVIS,CA,PRIMARY,36.93,-119.56,NA-US-CA-CLOVIS,false,19052,36239,952210182
95226,PO BOX,CAMPO SECO,CA,PRIMARY,38.23,-120.86,NA-US-CA-CAMPO SECO,false,,,
95230,STANDARD,FARMINGTON,CA,PRIMARY,37.96,-120.87,NA-US-CA-FARMINGTON,false,347,643,10390172
95920,STANDARD,BUTTE CITY,CA,PRIMARY,39.46,-121.93,NA-US-CA-BUTTE CITY,false,,,
95852,PO BOX,SACRAMENTO,CA,PRIMARY,38.60,-121.44,NA-US-CA-SACRAMENTO,false,,,
91329,UNIQUE,NORTHRIDGE,CA,PRIMARY,34.24,-118.53,NA-US-CA-NORTHRIDGE,false,,,
94254,PO BOX,SACRAMENTO,CA,PRIMARY,38.58,-121.49,NA-US-CA-SACRAMENTO,false,,,
92685,PO BOX,WESTMINSTER,CA,PRIMARY,33.75,-117.99,NA-US-CA-WESTMINSTER,false,801,1209,24821027
95327,STANDARD,JAMESTOWN,CA,PRIMARY,37.85,-120.49,NA-US-CA-JAMESTOWN,false,2718,4629,79526065
95223,STANDARD,ARNOLD,CA,PRIMARY,38.35,-120.20,NA-US-CA-ARNOLD,false,1969,3417,50583225
96092,PO BOX,VINA,CA,PRIMARY,39.97,-122.02,NA-US-CA-VINA,false,,,
90054,PO BOX,LOS ANGELES,CA,PRIMARY,34.06,-118.23,NA-US-CA-LOS ANGELES,false,,,
91225,PO BOX,GLENDALE,CA,PRIMARY,34.12,-118.25,NA-US-CA-GLENDALE,false,435,710,13891817
92137,PO BOX,SAN DIEGO,CA,PRIMARY,32.88,-117.10,NA-US-CA-SAN DIEGO,false,,,
92259,PO BOX,OCOTILLO,CA,PRIMARY,32.72,-115.88,NA-US-CA-OCOTILLO,false,,,
92879,STANDARD,CORONA,CA,PRIMARY,33.87,-117.53,NA-US-CA-CORONA,false,18219,34375,742811007
92131,STANDARD,SAN DIEGO,CA,PRIMARY,32.89,-117.07,NA-US-CA-SAN DIEGO,false,15578,30124,1421226680
93282,PO BOX,WAUKENA,CA,PRIMARY,36.14,-119.50,NA-US-CA-WAUKENA,false,,,
96093,PO BOX,WEAVERVILLE,CA,PRIMARY,40.74,-122.93,NA-US-CA-WEAVERVILLE,false,1968,3395,50942330
90822,STANDARD,LONG BEACH,CA,PRIMARY,33.77,-118.11,NA-US-CA-LONG BEACH,false,,,
90899,UNIQUE,LONG BEACH,CA,PRIMARY,33.77,-118.19,NA-US-CA-LONG BEACH,false,,,
93190,PO BOX,SANTA BARBARA,CA,PRIMARY,34.42,-119.70,NA-US-CA-SANTA BARBARA,false,476,718,15976184
91328,PO BOX,NORTHRIDGE,CA,PRIMARY,34.22,-118.53,NA-US-CA-NORTHRIDGE,false,257,363,8970440
92693,PO BOX,SAN JUAN CAPISTRANO,CA,PRIMARY,33.49,-117.66,NA-US-CA-SAN JUAN CAPISTRANO,false,370,621,10686642
95379,STANDARD,TUOLUMNE,CA,PRIMARY,37.95,-120.20,NA-US-CA-TUOLUMNE,false,1703,2996,51780550
91343,STANDARD,NORTH HILLS,CA,PRIMARY,34.23,-118.47,NA-US-CA-NORTH HILLS,false,22781,41190,809800563
93386,PO BOX,BAKERSFIELD,CA,PRIMARY,35.37,-118.95,NA-US-CA-BAKERSFIELD,false,381,671,12149101
95129,STANDARD,SAN JOSE,CA,PRIMARY,37.30,-122.00,NA-US-CA-SAN JOSE,false,17234,32839,1371049417
92084,STANDARD,VISTA,CA,PRIMARY,33.21,-117.20,NA-US-CA-VISTA,false,19126,34654,672595896
93388,PO BOX,BAKERSFIELD,CA,PRIMARY,35.41,-119.02,NA-US-CA-BAKERSFIELD,false,,,
95403,STANDARD,SANTA ROSA,CA,PRIMARY,38.50,-122.76,NA-US-CA-SANTA ROSA,false,19303,33257,836069618
91510,PO BOX,BURBANK,CA,PRIMARY,34.17,-118.34,NA-US-CA-BURBANK,false,764,1120,28446246
93705,STANDARD,FRESNO,CA,PRIMARY,36.78,-119.82,NA-US-CA-FRESNO,false,13110,23426,322067101
90076,PO BOX,LOS ANGELES,CA,PRIMARY,34.06,-118.31,NA-US-CA-LOS ANGELES,false,269,393,5595069
90044,STANDARD,LOS ANGELES,CA,PRIMARY,33.95,-118.29,NA-US-CA-LOS ANGELES,false,31106,56462,698006487
92124,STANDARD,SAN DIEGO,CA,PRIMARY,32.82,-117.08,NA-US-CA-SAN DIEGO,false,12863,23756,673792927
93955,STANDARD,SEASIDE,CA,PRIMARY,36.62,-121.82,NA-US-CA-SEASIDE,false,13223,24162,450948197
95064,STANDARD,SANTA CRUZ,CA,PRIMARY,36.98,-122.06,NA-US-CA-SANTA CRUZ,false,593,890,23118385
95421,STANDARD,CAZADERO,CA,PRIMARY,38.56,-123.20,NA-US-CA-CAZADERO,false,633,1034,17473008
93765,UNIQUE,FRESNO,CA,PRIMARY,36.83,-119.83,NA-US-CA-FRESNO,false,,,
90222,STANDARD,COMPTON,CA,PRIMARY,33.91,-118.23,NA-US-CA-COMPTON,false,11025,20801,271987553
90280,STANDARD,SOUTH GATE,CA,PRIMARY,33.94,-118.20,NA-US-CA-SOUTH GATE,false,36696,70212,1020099613
94540,PO BOX,HAYWARD,CA,PRIMARY,37.65,-122.09,NA-US-CA-HAYWARD,false,513,819,20575974
95442,STANDARD,GLEN ELLEN,CA,PRIMARY,38.38,-122.52,NA-US-CA-GLEN ELLEN,false,1725,2862,76866467
91182,UNIQUE,PASADENA,CA,PRIMARY,34.14,-118.14,NA-US-CA-PASADENA,false,,,
95010,STANDARD,CAPITOLA,CA,PRIMARY,36.97,-121.95,NA-US-CA-CAPITOLA,false,5183,7918,209706641
94551,STANDARD,LIVERMORE,CA,PRIMARY,37.77,-121.75,NA-US-CA-LIVERMORE,false,17671,32376,1037397927
90638,STANDARD,LA MIRADA,CA,PRIMARY,33.90,-118.00,NA-US-CA-LA MIRADA,false,21108,37827,939835408
95112,STANDARD,SAN JOSE,CA,PRIMARY,37.34,-121.88,NA-US-CA-SAN JOSE,false,21203,34111,891795651
93609,STANDARD,CARUTHERS,CA,PRIMARY,36.52,-119.87,NA-US-CA-CARUTHERS,false,2214,4374,62288956
93118,PO BOX,GOLETA,CA,PRIMARY,34.43,-119.82,NA-US-CA-GOLETA,false,319,482,12857834
93563,STANDARD,VALYERMO,CA,PRIMARY,34.39,-117.74,NA-US-CA-VALYERMO,false,,,
90717,STANDARD,LOMITA,CA,PRIMARY,33.79,-118.31,NA-US-CA-LOMITA,false,9883,16628,424496396
92688,STANDARD,RANCHO SANTA MARGARITA,CA,PRIMARY,33.61,-117.61,NA-US-CA-RANCHO SANTA MARGARITA,false,19374,36571,1334417917
95003,STANDARD,APTOS,CA,PRIMARY,37.00,-121.87,NA-US-CA-APTOS,false,11132,18954,594450968
90813,STANDARD,LONG BEACH,CA,PRIMARY,33.78,-118.18,NA-US-CA-LONG BEACH,false,18939,34994,434942021
93140,PO BOX,SANTA BARBARA,CA,PRIMARY,34.42,-119.67,NA-US-CA-SANTA BARBARA,false,823,1394,25682955
91012,PO BOX,LA CANADA FLINTRIDGE,CA,PRIMARY,34.20,-118.19,NA-US-CA-LA CANADA FLINTRIDGE,false,363,581,23834119
95669,STANDARD,PLYMOUTH,CA,PRIMARY,38.46,-120.88,NA-US-CA-PLYMOUTH,false,1167,2065,40463457
95306,STANDARD,CATHEYS VALLEY,CA,PRIMARY,37.38,-120.12,NA-US-CA-CATHEYS VALLEY,false,414,781,14170835
94527,PO BOX,CONCORD,CA,PRIMARY,37.97,-122.05,NA-US-CA-CONCORD,false,,,
90503,STANDARD,TORRANCE,CA,PRIMARY,33.84,-118.35,NA-US-CA-TORRANCE,false,20577,36775,1158273107
93107,PO BOX,SANTA BARBARA,CA,PRIMARY,34.42,-119.86,NA-US-CA-SANTA BARBARA,false,,,
93648,STANDARD,PARLIER,CA,PRIMARY,36.62,-119.51,NA-US-CA-PARLIER,false,5265,10702,115362615
95490,STANDARD,WILLITS,CA,PRIMARY,39.49,-123.36,NA-US-CA-WILLITS,false,5400,9434,145592603
92135,STANDARD,SAN DIEGO,CA,PRIMARY,32.70,-117.18,NA-US-CA-SAN DIEGO,false,448,523,9243796
93516,STANDARD,BORON,CA,PRIMARY,34.96,-117.67,NA-US-CA-BORON,false,720,1337,23917556
93022,STANDARD,OAK VIEW,CA,PRIMARY,34.40,-119.30,NA-US-CA-OAK VIEW,false,2957,5190,121900437
90042,STANDARD,LOS ANGELES,CA,PRIMARY,34.11,-118.19,NA-US-CA-LOS ANGELES,false,25542,43949,851843674
92234,STANDARD,CATHEDRAL CITY,CA,PRIMARY,33.82,-116.45,NA-US-CA-CATHEDRAL CITY,false,19251,34119,553309281
94547,STANDARD,HERCULES,CA,PRIMARY,38.01,-122.25,NA-US-CA-HERCULES,false,11486,20527,661959550
95762,STANDARD,EL DORADO HILLS,CA,PRIMARY,38.68,-121.05,NA-US-CA-EL DORADO HILLS,false,16749,33316,1479276947
95108,PO BOX,SAN JOSE,CA,PRIMARY,37.33,-122.08,NA-US-CA-SAN JOSE,false,,,
95351,STANDARD,MODESTO,CA,PRIMARY,37.63,-121.01,NA-US-CA-MODESTO,false,14508,28298,368321930
92132,UNIQUE,SAN DIEGO,CA,PRIMARY,32.71,-117.16,NA-US-CA-SAN DIEGO,false,,,
94534,STANDARD,FAIRFIELD,CA,PRIMARY,38.23,-122.12,NA-US-CA-FAIRFIELD,false,16103,30105,1029289877
90263,STANDARD,MALIBU,CA,PRIMARY,34.03,-118.70,NA-US-CA-MALIBU,false,,,
93772,PO BOX,FRESNO,CA,PRIMARY,36.74,-119.78,NA-US-CA-FRESNO,false,,,
92610,STANDARD,FOOTHILL RANCH,CA,PRIMARY,33.70,-117.67,NA-US-CA-FOOTHILL RANCH,false,4856,9499,395636665
95453,STANDARD,LAKEPORT,CA,PRIMARY,39.04,-122.93,NA-US-CA-LAKEPORT,false,4588,7976,133564273
91214,STANDARD,LA CRESCENTA,CA,PRIMARY,34.23,-118.24,NA-US-CA-LA CRESCENTA,false,13591,25651,742668478
90001,STANDARD,LOS ANGELES,CA,PRIMARY,33.97,-118.24,NA-US-CA-LOS ANGELES,false,18561,36200,421709138
93287,STANDARD,WOODY,CA,PRIMARY,35.73,-118.92,NA-US-CA-WOODY,false,,,
92505,STANDARD,RIVERSIDE,CA,PRIMARY,33.93,-117.49,NA-US-CA-RIVERSIDE,false,17377,32679,608469252
94612,STANDARD,OAKLAND,CA,PRIMARY,37.80,-122.27,NA-US-CA-OAKLAND,false,6275,8710,226586976
91766,STANDARD,POMONA,CA,PRIMARY,34.03,-117.75,NA-US-CA-POMONA,false,25958,49778,828212158
93251,STANDARD,MC KITTRICK,CA,PRIMARY,35.41,-119.76,NA-US-CA-MC KITTRICK,false,,,
92518,STANDARD,MARCH AIR RESERVE BASE,CA,PRIMARY,33.89,-117.27,NA-US-CA-MARCH AIR RESERVE BASE,false,658,1020,12134098
92318,PO BOX,BRYN MAWR,CA,PRIMARY,34.04,-117.23,NA-US-CA-BRYN MAWR,false,,,
92312,PO BOX,BARSTOW,CA,PRIMARY,34.97,-117.05,NA-US-CA-BARSTOW,false,765,1317,23185334
93773,PO BOX,FRESNO,CA,PRIMARY,36.71,-119.85,NA-US-CA-FRESNO,false,,,
95720,STANDARD,KYBURZ,CA,PRIMARY,38.77,-120.26,NA-US-CA-KYBURZ,false,,,
93709,PO BOX,FRESNO,CA,PRIMARY,36.73,-119.78,NA-US-CA-FRESNO,false,,,
91402,STANDARD,PANORAMA CITY,CA,PRIMARY,34.22,-118.44,NA-US-CA-PANORAMA CITY,false,24484,45198,676184645
92179,PO BOX,SAN DIEGO,CA,PRIMARY,32.56,-116.97,NA-US-CA-SAN DIEGO,false,,,
92395,STANDARD,VICTORVILLE,CA,PRIMARY,34.48,-117.36,NA-US-CA-VICTORVILLE,false,14227,26559,440358531
92539,STANDARD,ANZA,CA,PRIMARY,33.53,-116.68,NA-US-CA-ANZA,false,1642,2965,41422401
95634,STANDARD,GEORGETOWN,CA,PRIMARY,38.93,-120.77,NA-US-CA-GEORGETOWN,false,1394,2459,41000247
95427,STANDARD,COMPTCHE,CA,PRIMARY,39.24,-123.53,NA-US-CA-COMPTCHE,false,,,
93063,STANDARD,SIMI VALLEY,CA,PRIMARY,34.30,-118.72,NA-US-CA-SIMI VALLEY,false,25191,45423,1350809521
94901,STANDARD,SAN RAFAEL,CA,PRIMARY,37.97,-122.50,NA-US-CA-SAN RAFAEL,false,21498,33561,1034324983
95296,UNIQUE,STOCKTON,CA,PRIMARY,38.02,-121.30,NA-US-CA-STOCKTON,false,,,
92651,STANDARD,LAGUNA BEACH,CA,PRIMARY,33.55,-117.78,NA-US-CA-LAGUNA BEACH,false,12386,19615,1358082896
92423,PO BOX,SAN BERNARDINO,CA,PRIMARY,34.10,-117.28,NA-US-CA-SAN BERNARDINO,false,615,1021,25765924
91209,PO BOX,GLENDALE,CA,PRIMARY,34.14,-118.25,NA-US-CA-GLENDALE,false,661,985,23780112
90068,STANDARD,LOS ANGELES,CA,PRIMARY,34.13,-118.33,NA-US-CA-LOS ANGELES,false,11769,15853,763067439
94002,STANDARD,BELMONT,CA,PRIMARY,37.50,-122.30,NA-US-CA-BELMONT,false,13324,23092,1076478920
92677,STANDARD,LAGUNA NIGUEL,CA,PRIMARY,33.53,-117.70,NA-US-CA-LAGUNA NIGUEL,false,30211,53608,
92591,STANDARD,TEMECULA,CA,PRIMARY,33.53,-117.10,NA-US-CA-TEMECULA,false,15348,29508,736261977
91723,STANDARD,COVINA,CA,PRIMARY,34.08,-117.88,NA-US-CA-COVINA,false,7964,13780,303455822
95385,STANDARD,VERNALIS,CA,PRIMARY,37.61,-121.25,NA-US-CA-VERNALIS,false,,,
95449,STANDARD,HOPLAND,CA,PRIMARY,38.93,-123.11,NA-US-CA-HOPLAND,false,731,1330,21488698
95984,PO BOX,TWAIN,CA,PRIMARY,40.03,-121.08,NA-US-CA-TWAIN,false,,,
95663,STANDARD,PENRYN,CA,PRIMARY,38.85,-121.18,NA-US-CA-PENRYN,false,1261,2304,59958496
92058,STANDARD,OCEANSIDE,CA,PRIMARY,33.18,-117.29,NA-US-CA-OCEANSIDE,false,13496,27368,462375651
95210,STANDARD,STOCKTON,CA,PRIMARY,38.02,-121.30,NA-US-CA-STOCKTON,false,13868,25741,378633657
94507,STANDARD,ALAMO,CA,PRIMARY,37.84,-121.97,NA-US-CA-ALAMO,false,7482,14041,1010707959
92673,STANDARD,SAN CLEMENTE,CA,PRIMARY,33.48,-117.61,NA-US-CA-SAN CLEMENTE,false,12541,24536,1029391743
92399,STANDARD,YUCAIPA,CA,PRIMARY,34.04,-117.01,NA-US-CA-YUCAIPA,false,21184,39430,929936035
95521,STANDARD,ARCATA,CA,PRIMARY,40.85,-124.05,NA-US-CA-ARCATA,false,7385,10982,177508570
91410,PO BOX,VAN NUYS,CA,PRIMARY,34.20,-118.49,NA-US-CA-VAN NUYS,false,,,
91773,STANDARD,SAN DIMAS,CA,PRIMARY,34.10,-117.81,NA-US-CA-SAN DIMAS,false,16135,28256,808505402
95656,PO BOX,MOUNT AUKUM,CA,PRIMARY,38.56,-120.71,NA-US-CA-MOUNT AUKUM,false,374,644,12282004
93461,STANDARD,SHANDON,CA,PRIMARY,35.63,-120.26,NA-US-CA-SHANDON,false,628,1254,18783661
92583,STANDARD,SAN JACINTO,CA,PRIMARY,33.79,-116.93,NA-US-CA-SAN JACINTO,false,9828,18842,282582871
95562,STANDARD,RIO DELL,CA,PRIMARY,40.46,-124.13,NA-US-CA-RIO DELL,false,1202,2147,28716384
93657,STANDARD,SANGER,CA,PRIMARY,36.79,-119.44,NA-US-CA-SANGER,false,13126,25192,427252995
95067,PO BOX,SCOTTS VALLEY,CA,PRIMARY,36.97,-122.03,NA-US-CA-SCOTTS VALLEY,false,534,855,36089227
92620,STANDARD,IRVINE,CA,PRIMARY,33.70,-117.76,NA-US-CA-IRVINE,false,16885,31192,1237201618
91913,STANDARD,CHULA VISTA,CA,PRIMARY,32.64,-116.98,NA-US-CA-CHULA VISTA,false,15720,31558,850730380
95676,PO BOX,ROBBINS,CA,PRIMARY,38.94,-121.74,NA-US-CA-ROBBINS,false,,,
92064,STANDARD,POWAY,CA,PRIMARY,32.97,-117.02,NA-US-CA-POWAY,false,21710,40359,1468669633
90302,STANDARD,INGLEWOOD,CA,PRIMARY,33.97,-118.35,NA-US-CA-INGLEWOOD,false,12372,20745,383291347
91118,PO BOX,SAN MARINO,CA,PRIMARY,34.12,-118.09,NA-US-CA-SAN MARINO,false,,,
95329,STANDARD,LA GRANGE,CA,PRIMARY,37.66,-120.45,NA-US-CA-LA GRANGE,false,1025,1940,37699598
92397,STANDARD,WRIGHTWOOD,CA,PRIMARY,34.36,-117.61,NA-US-CA-WRIGHTWOOD,false,2422,4357,114535083
90241,STANDARD,DOWNEY,CA,PRIMARY,33.94,-118.13,NA-US-CA-DOWNEY,false,18134,32425,666605601
94543,PO BOX,HAYWARD,CA,PRIMARY,37.67,-122.08,NA-US-CA-HAYWARD,false,,,
92411,STANDARD,SAN BERNARDINO,CA,PRIMARY,34.12,-117.32,NA-US-CA-SAN BERNARDINO,false,9021,17344,191433760
95693,STANDARD,WILTON,CA,PRIMARY,38.39,-121.24,NA-US-CA-WILTON,false,3145,5891,162161296
90637,PO BOX,LA MIRADA,CA,PRIMARY,33.89,-118.00,NA-US-CA-LA MIRADA,false,467,777,20205403
94062,STANDARD,REDWOOD CITY,CA,PRIMARY,37.40,-122.29,NA-US-CA-REDWOOD CITY,false,12946,22552,1430390507
90290,STANDARD,TOPANGA,CA,PRIMARY,34.10,-118.60,NA-US-CA-TOPANGA,false,2959,5072,187563900
93646,STANDARD,ORANGE COVE,CA,PRIMARY,36.64,-119.29,NA-US-CA-ORANGE COVE,false,3110,6510,65069134
95662,STANDARD,ORANGEVALE,CA,PRIMARY,38.68,-121.22,NA-US-CA-ORANGEVALE,false,14917,26135,630383739
95930,STANDARD,CLIPPER MILLS,CA,PRIMARY,39.54,-121.16,NA-US-CA-CLIPPER MILLS,false,,,
94038,STANDARD,MOSS BEACH,CA,PRIMARY,37.51,-122.50,NA-US-CA-MOSS BEACH,false,1354,2425,90509726
90846,UNIQUE,LONG BEACH,CA,PRIMARY,33.82,-118.11,NA-US-CA-LONG BEACH,false,,,
93546,STANDARD,MAMMOTH LAKES,CA,PRIMARY,37.58,-118.84,NA-US-CA-MAMMOTH LAKES,false,4061,6723,140836016
94524,PO BOX,CONCORD,CA,PRIMARY,37.97,-122.05,NA-US-CA-CONCORD,false,487,720,20378986
95958,PO BOX,NELSON,CA,PRIMARY,39.55,-121.77,NA-US-CA-NELSON,false,,,
94666,UNIQUE,OAKLAND,CA,PRIMARY,37.80,-122.26,NA-US-CA-OAKLAND,false,,,
90610,PO BOX,WHITTIER,CA,PRIMARY,33.96,-118.07,NA-US-CA-WHITTIER,false,,,
96048,STANDARD,JUNCTION CITY,CA,PRIMARY,40.87,-123.10,NA-US-CA-JUNCTION CITY,false,299,494,5281098
95037,STANDARD,MORGAN HILL,CA,PRIMARY,37.17,-121.65,NA-US-CA-MORGAN HILL,false,18893,35452,1321936932
94920,STANDARD,BELVEDERE TIBURON,CA,PRIMARY,37.89,-122.47,NA-US-CA-BELVEDERE TIBURON,false,6348,10900,869131648
94159,PO BOX,SAN FRANCISCO,CA,PRIMARY,37.78,-122.45,NA-US-CA-SAN FRANCISCO,false,344,479,14127569
90095,UNIQUE,LOS ANGELES,CA,PRIMARY,34.07,-118.44,NA-US-CA-LOS ANGELES,false,,,
92675,STANDARD,SAN JUAN CAPISTRANO,CA,PRIMARY,33.52,-117.61,NA-US-CA-SAN JUAN CAPISTRANO,false,15235,27693,839490098
94060,STANDARD,PESCADERO,CA,PRIMARY,37.20,-122.30,NA-US-CA-PESCADERO,false,761,1410,29342452
92169,PO BOX,SAN DIEGO,CA,PRIMARY,32.79,-117.25,NA-US-CA-SAN DIEGO,false,924,1191,33048659
95951,PO BOX,HAMILTON CITY,CA,PRIMARY,39.72,-122.05,NA-US-CA-HAMILTON CITY,false,1174,2398,29028997
95686,PO BOX,THORNTON,CA,PRIMARY,38.17,-121.52,NA-US-CA-THORNTON,false,480,922,12793994
92241,STANDARD,DESERT HOT SPRINGS,CA,PRIMARY,33.83,-116.29,NA-US-CA-DESERT HOT SPRINGS,false,2485,4216,48988463
95017,STANDARD,DAVENPORT,CA,PRIMARY,37.09,-122.24,NA-US-CA-DAVENPORT,false,420,718,14047160
93527,STANDARD,INYOKERN,CA,PRIMARY,35.88,-118.15,NA-US-CA-INYOKERN,false,967,1719,35632611
94570,PO BOX,MORAGA,CA,PRIMARY,38.11,-122.13,NA-US-CA-MORAGA,false,,,
92676,STANDARD,SILVERADO,CA,PRIMARY,33.75,-117.63,NA-US-CA-SILVERADO,false,942,1608,58062843
92707,STANDARD,SANTA ANA,CA,PRIMARY,33.71,-117.87,NA-US-CA-SANTA ANA,false,25232,48517,774459174
93003,STANDARD,VENTURA,CA,PRIMARY,34.28,-119.22,NA-US-CA-VENTURA,false,23155,39626,1011453349
94539,STANDARD,FREMONT,CA,PRIMARY,37.51,-121.89,NA-US-CA-FREMONT,false,21883,44440,
95148,STANDARD,SAN JOSE,CA,PRIMARY,37.33,-121.77,NA-US-CA-SAN JOSE,false,19993,37541,1141395981
95851,PO BOX,SACRAMENTO,CA,PRIMARY,38.60,-121.44,NA-US-CA-SACRAMENTO,false,,,
95193,UNIQUE,SAN JOSE,CA,PRIMARY,37.24,-121.83,NA-US-CA-SAN JOSE,false,,,
92857,PO BOX,ORANGE,CA,PRIMARY,33.83,-117.84,NA-US-CA-ORANGE,false,,,
92801,STANDARD,ANAHEIM,CA,PRIMARY,33.84,-117.95,NA-US-CA-ANAHEIM,false,24755,45683,790993358
94555,STANDARD,FREMONT,CA,PRIMARY,37.55,-122.07,NA-US-CA-FREMONT,false,14179,28222,1098134084
94021,STANDARD,LOMA MAR,CA,PRIMARY,37.27,-122.26,NA-US-CA-LOMA MAR,false,,,
93612,STANDARD,CLOVIS,CA,PRIMARY,36.81,-119.71,NA-US-CA-CLOVIS,false,14020,24053,416143481
91204,STANDARD,GLENDALE,CA,PRIMARY,34.13,-118.26,NA-US-CA-GLENDALE,false,6504,11153,201152600
92850,UNIQUE,ANAHEIM,CA,PRIMARY,33.84,-117.95,NA-US-CA-ANAHEIM,false,,,
91748,STANDARD,ROWLAND HEIGHTS,CA,PRIMARY,33.97,-117.90,NA-US-CA-ROWLAND HEIGHTS,false,20725,37487,784927824
90507,PO BOX,TORRANCE,CA,PRIMARY,33.83,-118.31,NA-US-CA-TORRANCE,false,,,
91730,STANDARD,RANCHO CUCAMONGA,CA,PRIMARY,34.09,-117.58,NA-US-CA-RANCHO CUCAMONGA,false,27446,48152,1184718073
95674,STANDARD,RIO OSO,CA,PRIMARY,38.95,-121.49,NA-US-CA-RIO OSO,false,404,734,13354501
90755,STANDARD,SIGNAL HILL,CA,PRIMARY,33.80,-118.16,NA-US-CA-SIGNAL HILL,false,5205,8468,258295992
92345,STANDARD,HESPERIA,CA,PRIMARY,34.36,-117.32,NA-US-CA-HESPERIA,false,27131,52569,852059360
93716,PO BOX,FRESNO,CA,PRIMARY,36.73,-119.78,NA-US-CA-FRESNO,false,,,
95981,STANDARD,STRAWBERRY VALLEY,CA,PRIMARY,39.56,-121.10,NA-US-CA-STRAWBERRY VALLEY,false,,,
92385,PO BOX,SKYFOREST,CA,PRIMARY,34.23,-117.18,NA-US-CA-SKYFOREST,false,,,
94561,STANDARD,OAKLEY,CA,PRIMARY,37.99,-121.68,NA-US-CA-OAKLEY,false,14178,27185,711793371
90833,STANDARD,LONG BEACH,CA,PRIMARY,33.76,-118.20,NA-US-CA-LONG BEACH,false,,,
94608,STANDARD,EMERYVILLE,CA,PRIMARY,37.83,-122.29,NA-US-CA-EMERYVILLE,false,12865,18425,575218355
94925,STANDARD,CORTE MADERA,CA,PRIMARY,37.92,-122.51,NA-US-CA-CORTE MADERA,false,4620,8134,385143099
94602,STANDARD,OAKLAND,CA,PRIMARY,37.80,-122.21,NA-US-CA-OAKLAND,false,13693,22480,739626317
91909,PO BOX,CHULA VISTA,CA,PRIMARY,32.61,-117.06,NA-US-CA-CHULA VISTA,false,474,841,11782141
93581,PO BOX,TEHACHAPI,CA,PRIMARY,35.13,-118.44,NA-US-CA-TEHACHAPI,false,994,1753,36468114
90049,STANDARD,LOS ANGELES,CA,PRIMARY,34.08,-118.49,NA-US-CA-LOS ANGELES,false,19260,29275,2124002456
94140,PO BOX,SAN FRANCISCO,CA,PRIMARY,37.75,-122.41,NA-US-CA-SAN FRANCISCO,false,401,625,11709528
92706,STANDARD,SANTA ANA,CA,PRIMARY,33.76,-117.88,NA-US-CA-SANTA ANA,false,14635,27773,521280485
94662,PO BOX,EMERYVILLE,CA,PRIMARY,37.84,-122.29,NA-US-CA-EMERYVILLE,false,400,557,15776519
96001,STANDARD,REDDING,CA,PRIMARY,40.60,-122.46,NA-US-CA-REDDING,false,13491,23744,469950362
92592,STANDARD,TEMECULA,CA,PRIMARY,33.53,-117.04,NA-US-CA-TEMECULA,false,26766,53769,1483482432
90069,STANDARD,WEST HOLLYWOOD,CA,PRIMARY,34.09,-118.38,NA-US-CA-WEST HOLLYWOOD,false,14177,17126,1147697730
95502,PO BOX,EUREKA,CA,PRIMARY,40.81,-124.08,NA-US-CA-EUREKA,false,1795,2818,47260805
92310,STANDARD,FORT IRWIN,CA,PRIMARY,35.30,-116.74,NA-US-CA-FORT IRWIN,false,2894,6090,99172025
95833,STANDARD,SACRAMENTO,CA,PRIMARY,38.61,-121.49,NA-US-CA-SACRAMENTO,false,15930,27060,621872326
92881,STANDARD,CORONA,CA,PRIMARY,33.83,-117.50,NA-US-CA-CORONA,false,11715,23308,685747279
95338,STANDARD,MARIPOSA,CA,PRIMARY,37.49,-120.00,NA-US-CA-MARIPOSA,false,4638,8172,127940172
94552,STANDARD,CASTRO VALLEY,CA,PRIMARY,37.69,-122.01,NA-US-CA-CASTRO VALLEY,false,6810,13039,545829010
92321,PO BOX,CEDAR GLEN,CA,PRIMARY,34.25,-117.16,NA-US-CA-CEDAR GLEN,false,671,1202,19286284
91316,STANDARD,ENCINO,CA,PRIMARY,34.15,-118.52,NA-US-CA-ENCINO,false,13522,21973,817003808
91116,PO BOX,PASADENA,CA,PRIMARY,34.14,-118.13,NA-US-CA-PASADENA,false,,,
92567,STANDARD,NUEVO,CA,PRIMARY,33.82,-117.10,NA-US-CA-NUEVO,false,3437,6743,124419451
92509,STANDARD,RIVERSIDE,CA,PRIMARY,33.99,-117.44,NA-US-CA-RIVERSIDE,false,27526,53031,909574778
92182,UNIQUE,SAN DIEGO,CA,PRIMARY,32.76,-117.07,NA-US-CA-SAN DIEGO,false,,,
94120,PO BOX,SAN FRANCISCO,CA,PRIMARY,37.79,-122.40,NA-US-CA-SAN FRANCISCO,false,,,
91772,UNIQUE,ROSEMEAD,CA,PRIMARY,34.06,-118.08,NA-US-CA-ROSEMEAD,false,,,
94706,STANDARD,ALBANY,CA,PRIMARY,37.88,-122.29,NA-US-CA-ALBANY,false,9071,15637,483125235
91106,STANDARD,PASADENA,CA,PRIMARY,34.13,-118.13,NA-US-CA-PASADENA,false,11527,17783,765437418
94705,STANDARD,BERKELEY,CA,PRIMARY,37.86,-122.24,NA-US-CA-BERKELEY,false,7199,10879,545562777
95151,PO BOX,SAN JOSE,CA,PRIMARY,37.29,-121.78,NA-US-CA-SAN JOSE,false,934,1597,30622435
91313,PO BOX,CHATSWORTH,CA,PRIMARY,34.23,-118.58,NA-US-CA-CHATSWORTH,false,450,686,18609490
93201,PO BOX,ALPAUGH,CA,PRIMARY,35.86,-119.46,NA-US-CA-ALPAUGH,false,336,696,6904142
92052,PO BOX,OCEANSIDE,CA,PRIMARY,33.19,-117.36,NA-US-CA-OCEANSIDE,false,793,1285,28188938
95407,STANDARD,SANTA ROSA,CA,PRIMARY,38.39,-122.75,NA-US-CA-SANTA ROSA,false,14600,26764,494885664
95152,PO BOX,SAN JOSE,CA,PRIMARY,37.41,-121.82,NA-US-CA-SAN JOSE,false,272,448,9976461
95776,STANDARD,WOODLAND,CA,PRIMARY,38.69,-121.68,NA-US-CA-WOODLAND,false,9446,18163,384850229
95556,PO BOX,ORLEANS,CA,PRIMARY,41.31,-123.61,NA-US-CA-ORLEANS,false,,,
94247,PO BOX,SACRAMENTO,CA,PRIMARY,38.58,-121.49,NA-US-CA-SACRAMENTO,false,,,
93237,PO BOX,KAWEAH,CA,PRIMARY,36.46,-118.91,NA-US-CA-KAWEAH,false,,,
95534,PO BOX,CUTTEN,CA,PRIMARY,40.79,-124.15,NA-US-CA-CUTTEN,false,,,
94660,UNIQUE,OAKLAND,CA,PRIMARY,37.79,-122.27,NA-US-CA-OAKLAND,false,,,
92861,STANDARD,VILLA PARK,CA,PRIMARY,33.81,-117.81,NA-US-CA-VILLA PARK,false,2876,5228,238022976
92195,PO BOX,SAN DIEGO,CA,PRIMARY,32.74,-117.05,NA-US-CA-SAN DIEGO,false,442,680,13231430
92811,PO BOX,ATWOOD,CA,PRIMARY,33.86,-117.83,NA-US-CA-ATWOOD,false,,,
91946,PO BOX,LEMON GROVE,CA,PRIMARY,32.74,-117.03,NA-US-CA-LEMON GROVE,false,390,618,11661222
92280,STANDARD,VIDAL,CA,PRIMARY,34.14,-114.52,NA-US-CA-VIDAL,false,,,
92249,STANDARD,HEBER,CA,PRIMARY,32.73,-115.47,NA-US-CA-HEBER,false,2713,5698,79475280
92196,PO BOX,SAN DIEGO,CA,PRIMARY,32.91,-117.12,NA-US-CA-SAN DIEGO,false,713,1097,27138119
92328,STANDARD,DEATH VALLEY,CA,PRIMARY,36.29,-116.45,NA-US-CA-DEATH VALLEY,false,,,
95363,STANDARD,PATTERSON,CA,PRIMARY,37.49,-121.25,NA-US-CA-PATTERSON,false,9127,18121,354778180
92088,PO BOX,FALLBROOK,CA,PRIMARY,33.36,-117.25,NA-US-CA-FALLBROOK,false,1140,2049,30372543
95540,STANDARD,FORTUNA,CA,PRIMARY,40.57,-124.15,NA-US-CA-FORTUNA,false,5585,9910,159957354
90086,PO BOX,LOS ANGELES,CA,PRIMARY,34.06,-118.23,NA-US-CA-LOS ANGELES,false,368,550,14387254
93901,STANDARD,SALINAS,CA,PRIMARY,36.64,-121.62,NA-US-CA-SALINAS,false,10997,19097,423358770
92880,STANDARD,CORONA,CA,PRIMARY,33.90,-117.61,NA-US-CA-CORONA,false,21055,42387,1188941708
93313,STANDARD,BAKERSFIELD,CA,PRIMARY,35.15,-119.06,NA-US-CA-BAKERSFIELD,false,15619,31082,635943746
95164,PO BOX,SAN JOSE,CA,PRIMARY,37.39,-121.92,NA-US-CA-SAN JOSE,false,577,819,29710183
92275,PO BOX,SALTON CITY,CA,PRIMARY,33.28,-115.92,NA-US-CA-SALTON CITY,false,474,894,11033057
95317,STANDARD,EL NIDO,CA,PRIMARY,37.12,-120.51,NA-US-CA-EL NIDO,false,367,792,10047978
95460,STANDARD,MENDOCINO,CA,PRIMARY,39.30,-123.73,NA-US-CA-MENDOCINO,false,1495,2343,32050911
95818,STANDARD,SACRAMENTO,CA,PRIMARY,38.55,-121.49,NA-US-CA-SACRAMENTO,false,10328,16236,506312116
93060,STANDARD,SANTA PAULA,CA,PRIMARY,34.40,-119.07,NA-US-CA-SANTA PAULA,false,12896,24908,416934552
92363,STANDARD,NEEDLES,CA,PRIMARY,34.78,-114.59,NA-US-CA-NEEDLES,false,2020,3538,54800907
95236,STANDARD,LINDEN,CA,PRIMARY,38.05,-121.03,NA-US-CA-LINDEN,false,2426,4764,99770965
93409,UNIQUE,SAN LUIS OBISPO,CA,PRIMARY,35.22,-120.63,NA-US-CA-SAN LUIS OBISPO,false,,,
95446,STANDARD,GUERNEVILLE,CA,PRIMARY,38.52,-123.01,NA-US-CA-GUERNEVILLE,false,2437,3558,73699073
94061,STANDARD,REDWOOD CITY,CA,PRIMARY,37.46,-122.24,NA-US-CA-REDWOOD CITY,false,16211,27970,948416853
95444,STANDARD,GRATON,CA,PRIMARY,38.43,-122.86,NA-US-CA-GRATON,false,664,1154,22136651
90094,STANDARD,PLAYA VISTA,CA,PRIMARY,33.97,-118.43,NA-US-CA-PLAYA VISTA,false,2612,3903,231704380
92262,STANDARD,PALM SPRINGS,CA,PRIMARY,33.85,-116.56,NA-US-CA-PALM SPRINGS,false,11547,17175,351214373
96040,STANDARD,HAT CREEK,CA,PRIMARY,40.80,-121.46,NA-US-CA-HAT CREEK,false,,,
90292,STANDARD,MARINA DEL REY,CA,PRIMARY,33.97,-118.43,NA-US-CA-MARINA DEL REY,false,12371,16888,881361201
93216,PO BOX,DELANO,CA,PRIMARY,35.75,-119.27,NA-US-CA-DELANO,false,1085,2141,26298459
92402,PO BOX,SAN BERNARDINO,CA,PRIMARY,34.07,-117.46,NA-US-CA-SAN BERNARDINO,false,430,714,12226376
94205,PO BOX,SACRAMENTO,CA,PRIMARY,38.47,-121.44,NA-US-CA-SACRAMENTO,false,,,
94518,STANDARD,CONCORD,CA,PRIMARY,37.95,-122.02,NA-US-CA-CONCORD,false,12522,21464,637380479
90084,UNIQUE,LOS ANGELES,CA,PRIMARY,34.05,-118.26,NA-US-CA-LOS ANGELES,false,,,
91208,STANDARD,GLENDALE,CA,PRIMARY,34.19,-118.24,NA-US-CA-GLENDALE,false,7582,13555,454154140
94515,STANDARD,CALISTOGA,CA,PRIMARY,38.62,-122.61,NA-US-CA-CALISTOGA,false,3418,5845,124927436
95267,PO BOX,STOCKTON,CA,PRIMARY,38.00,-121.31,NA-US-CA-STOCKTON,false,432,723,14974673
92403,STANDARD,SAN BERNARDINO,CA,PRIMARY,34.10,-117.27,NA-US-CA-SAN BERNARDINO,false,,,
94256,PO BOX,SACRAMENTO,CA,PRIMARY,38.58,-121.49,NA-US-CA-SACRAMENTO,false,,,
95486,PO BOX,VILLA GRANDE,CA,PRIMARY,38.47,-123.03,NA-US-CA-VILLA GRANDE,false,,,
93664,STANDARD,SHAVER LAKE,CA,PRIMARY,37.06,-119.04,NA-US-CA-SHAVER LAKE,false,383,681,13238959
92161,UNIQUE,SAN DIEGO,CA,PRIMARY,32.88,-117.22,NA-US-CA-SAN DIEGO,false,,,
95956,PO BOX,MEADOW VALLEY,CA,PRIMARY,39.92,-121.05,NA-US-CA-MEADOW VALLEY,false,,,
95646,PO BOX,KIRKWOOD,CA,PRIMARY,38.69,-120.05,NA-US-CA-KIRKWOOD,false,,,
93675,STANDARD,SQUAW VALLEY,CA,PRIMARY,36.74,-119.19,NA-US-CA-SQUAW VALLEY,false,1453,2686,48935228
93932,PO BOX,LOCKWOOD,CA,PRIMARY,35.99,-121.06,NA-US-CA-LOCKWOOD,false,,,
90652,PO BOX,NORWALK,CA,PRIMARY,33.91,-118.07,NA-US-CA-NORWALK,false,,,
90844,UNIQUE,LONG BEACH,CA,PRIMARY,33.77,-118.19,NA-US-CA-LONG BEACH,false,,,
93556,PO BOX,RIDGECREST,CA,PRIMARY,35.62,-117.67,NA-US-CA-RIDGECREST,false,810,1341,28967762
95124,STANDARD,SAN JOSE,CA,PRIMARY,37.25,-121.92,NA-US-CA-SAN JOSE,false,21510,39234,1515281029
91932,STANDARD,IMPERIAL BEACH,CA,PRIMARY,32.57,-117.11,NA-US-CA-IMPERIAL BEACH,false,11409,19955,346187684
95205,STANDARD,STOCKTON,CA,PRIMARY,37.96,-121.26,NA-US-CA-STOCKTON,false,12384,24135,291770552
91346,PO BOX,MISSION HILLS,CA,PRIMARY,34.26,-118.46,NA-US-CA-MISSION HILLS,false,305,507,11285264
95894,UNIQUE,SACRAMENTO,CA,PRIMARY,38.55,-121.49,NA-US-CA-SACRAMENTO,false,,,
92546,PO BOX,HEMET,CA,PRIMARY,33.74,-116.97,NA-US-CA-HEMET,false,675,1153,17248817
92187,UNIQUE,SAN DIEGO,CA,PRIMARY,32.72,-117.16,NA-US-CA-SAN DIEGO,false,,,
95155,PO BOX,SAN JOSE,CA,PRIMARY,37.31,-121.90,NA-US-CA-SAN JOSE,false,,,
95606,STANDARD,BROOKS,CA,PRIMARY,38.80,-122.18,NA-US-CA-BROOKS,false,,,
90016,STANDARD,LOS ANGELES,CA,PRIMARY,34.02,-118.35,NA-US-CA-LOS ANGELES,false,20134,34391,570516671
93266,STANDARD,STRATFORD,CA,PRIMARY,36.17,-119.81,NA-US-CA-STRATFORD,false,616,1255,15939465
93205,STANDARD,BODFISH,CA,PRIMARY,35.52,-118.40,NA-US-CA-BODFISH,false,746,1286,14547864
91003,PO BOX,ALTADENA,CA,PRIMARY,34.18,-118.13,NA-US-CA-ALTADENA,false,268,403,9996662
93121,PO BOX,SANTA BARBARA,CA,PRIMARY,34.41,-119.70,NA-US-CA-SANTA BARBARA,false,631,901,21837923
90043,STANDARD,LOS ANGELES,CA,PRIMARY,33.98,-118.33,NA-US-CA-LOS ANGELES,false,19284,32064,615346996
91747,PO BOX,LA PUENTE,CA,PRIMARY,34.02,-117.94,NA-US-CA-LA PUENTE,false,765,1343,22098894
95546,STANDARD,HOOPA,CA,PRIMARY,41.11,-123.64,NA-US-CA-HOOPA,false,932,1777,22027995
92415,UNIQUE,SAN BERNARDINO,CA,PRIMARY,34.12,-117.26,NA-US-CA-SAN BERNARDINO,false,,,
93444,STANDARD,NIPOMO,CA,PRIMARY,35.05,-120.48,NA-US-CA-NIPOMO,false,8438,15501,327119339
95106,PO BOX,SAN JOSE,CA,PRIMARY,37.33,-121.89,NA-US-CA-SAN JOSE,false,,,
93654,STANDARD,REEDLEY,CA,PRIMARY,36.65,-119.40,NA-US-CA-REEDLEY,false,11351,22515,334685237
90895,UNIQUE,CARSON,CA,PRIMARY,33.83,-118.21,NA-US-CA-CARSON,false,,,
96070,PO BOX,OBRIEN,CA,PRIMARY,40.81,-122.32,NA-US-CA-OBRIEN,false,,,
93721,STANDARD,FRESNO,CA,PRIMARY,36.73,-119.78,NA-US-CA-FRESNO,false,1140,1906,28990999
90046,STANDARD,LOS ANGELES,CA,PRIMARY,34.10,-118.37,NA-US-CA-LOS ANGELES,false,26948,34474,1384367441
93584,PO BOX,LANCASTER,CA,PRIMARY,34.69,-118.13,NA-US-CA-LANCASTER,false,303,520,8344802
95422,STANDARD,CLEARLAKE,CA,PRIMARY,38.96,-122.64,NA-US-CA-CLEARLAKE,false,4328,7530,91164588
95742,STANDARD,RANCHO CORDOVA,CA,PRIMARY,38.57,-121.17,NA-US-CA-RANCHO CORDOVA,false,3413,6511,228778705
95063,PO BOX,SANTA CRUZ,CA,PRIMARY,36.97,-122.00,NA-US-CA-SANTA CRUZ,false,1015,1484,34154587
95677,STANDARD,ROCKLIN,CA,PRIMARY,38.80,-121.24,NA-US-CA-ROCKLIN,false,11381,20132,536083455
92129,STANDARD,SAN DIEGO,CA,PRIMARY,32.96,-117.12,NA-US-CA-SAN DIEGO,false,23036,43907,1594874427
93711,STANDARD,FRESNO,CA,PRIMARY,36.84,-119.82,NA-US-CA-FRESNO,false,17581,30146,896970246
95480,STANDARD,STEWARTS POINT,CA,PRIMARY,38.64,-123.37,NA-US-CA-STEWARTS POINT,false,,,
95661,STANDARD,ROSEVILLE,CA,PRIMARY,38.74,-121.25,NA-US-CA-ROSEVILLE,false,13850,24647,723809681
95699,PO BOX,DRYTOWN,CA,PRIMARY,38.44,-120.85,NA-US-CA-DRYTOWN,false,,,
95457,STANDARD,LOWER LAKE,CA,PRIMARY,38.88,-122.55,NA-US-CA-LOWER LAKE,false,1604,2786,45397024
95056,PO BOX,SANTA CLARA,CA,PRIMARY,37.40,-121.96,NA-US-CA-SANTA CLARA,false,483,795,45600398
93535,STANDARD,LANCASTER,CA,PRIMARY,34.69,-117.90,NA-US-CA-LANCASTER,false,24320,45851,751532695
95627,STANDARD,ESPARTO,CA,PRIMARY,38.78,-122.12,NA-US-CA-ESPARTO,false,1538,2896,59947429
92248,PO BOX,LA QUINTA,CA,PRIMARY,33.66,-116.31,NA-US-CA-LA QUINTA,false,548,966,20372887
92549,STANDARD,IDYLLWILD,CA,PRIMARY,33.76,-116.73,NA-US-CA-IDYLLWILD,false,1872,3099,51573256
94553,STANDARD,MARTINEZ,CA,PRIMARY,37.98,-122.15,NA-US-CA-MARTINEZ,false,22866,38654,1198693793
91776,STANDARD,SAN GABRIEL,CA,PRIMARY,34.08,-118.09,NA-US-CA-SAN GABRIEL,false,17533,30178,514243925
91360,STANDARD,THOUSAND OAKS,CA,PRIMARY,34.21,-118.88,NA-US-CA-THOUSAND OAKS,false,19615,35014,1023505547
92341,PO BOX,GREEN VALLEY LAKE,CA,PRIMARY,34.24,-117.07,NA-US-CA-GREEN VALLEY LAKE,false,,,
95432,STANDARD,ELK,CA,PRIMARY,39.12,-123.62,NA-US-CA-ELK,false,,,
92284,STANDARD,YUCCA VALLEY,CA,PRIMARY,34.15,-116.41,NA-US-CA-YUCCA VALLEY,false,8847,15762,258718737
93262,STANDARD,SEQUOIA NATIONAL PARK,CA,PRIMARY,36.53,-118.72,NA-US-CA-SEQUOIA NATIONAL PARK,false,,,
94230,PO BOX,SACRAMENTO,CA,PRIMARY,38.47,-121.44,NA-US-CA-SACRAMENTO,false,,,
94603,STANDARD,OAKLAND,CA,PRIMARY,37.73,-122.17,NA-US-CA-OAKLAND,false,11456,21407,346505453
92266,PO BOX,PALO VERDE,CA,PRIMARY,33.32,-114.71,NA-US-CA-PALO VERDE,false,,,
93463,STANDARD,SOLVANG,CA,PRIMARY,34.61,-120.14,NA-US-CA-SOLVANG,false,3270,5699,139950764
92233,STANDARD,CALIPATRIA,CA,PRIMARY,33.13,-115.52,NA-US-CA-CALIPATRIA,false,1320,2671,42446541
95559,PO BOX,PHILLIPSVILLE,CA,PRIMARY,40.18,-123.76,NA-US-CA-PHILLIPSVILLE,false,,,
93619,STANDARD,CLOVIS,CA,PRIMARY,36.91,-119.58,NA-US-CA-CLOVIS,false,11654,23064,792514932
95227,PO BOX,CLEMENTS,CA,PRIMARY,38.21,-121.03,NA-US-CA-CLEMENTS,false,494,888,21648053
91977,STANDARD,SPRING VALLEY,CA,PRIMARY,32.71,-116.99,NA-US-CA-SPRING VALLEY,false,24418,44239,864222009
95524,STANDARD,BAYSIDE,CA,PRIMARY,40.81,-124.01,NA-US-CA-BAYSIDE,false,1038,1740,32200527
96002,STANDARD,REDDING,CA,PRIMARY,40.52,-122.32,NA-US-CA-REDDING,false,13244,23604,391494130
93130,PO BOX,SANTA BARBARA,CA,PRIMARY,34.44,-119.73,NA-US-CA-SANTA BARBARA,false,778,1165,30517929
90660,STANDARD,PICO RIVERA,CA,PRIMARY,33.98,-118.08,NA-US-CA-PICO RIVERA,false,26615,48568,865313312
93510,STANDARD,ACTON,CA,PRIMARY,34.49,-118.22,NA-US-CA-ACTON,false,3624,6716,220092605
95819,STANDARD,SACRAMENTO,CA,PRIMARY,38.56,-121.43,NA-US-CA-SACRAMENTO,false,8823,13837,495741097
94530,STANDARD,EL CERRITO,CA,PRIMARY,37.91,-122.30,NA-US-CA-EL CERRITO,false,13003,21140,641971528
93531,STANDARD,KEENE,CA,PRIMARY,35.23,-118.62,NA-US-CA-KEENE,false,269,484,15251474
93384,PO BOX,BAKERSFIELD,CA,PRIMARY,35.37,-119.01,NA-US-CA-BAKERSFIELD,false,829,1480,23889498
92606,STANDARD,IRVINE,CA,PRIMARY,33.70,-117.79,NA-US-CA-IRVINE,false,8951,16267,597314986
93616,STANDARD,DEL REY,CA,PRIMARY,36.65,-119.59,NA-US-CA-DEL REY,false,1012,1990,22057765
95650,STANDARD,LOOMIS,CA,PRIMARY,38.81,-121.16,NA-US-CA-LOOMIS,false,6003,10909,312189354
90081,PO BOX,LOS ANGELES,CA,PRIMARY,34.05,-118.26,NA-US-CA-LOS ANGELES,false,524,1017,72123107
95528,STANDARD,CARLOTTA,CA,PRIMARY,40.48,-123.95,NA-US-CA-CARLOTTA,false,412,754,10038384
96067,STANDARD,MOUNT SHASTA,CA,PRIMARY,41.31,-122.32,NA-US-CA-MOUNT SHASTA,false,3704,6226,104912344
90233,PO BOX,CULVER CITY,CA,PRIMARY,33.98,-118.38,NA-US-CA-CULVER CITY,false,,,
95215,STANDARD,STOCKTON,CA,PRIMARY,37.95,-121.12,NA-US-CA-STOCKTON,false,8083,15614,233324616
92832,STANDARD,FULLERTON,CA,PRIMARY,33.86,-117.92,NA-US-CA-FULLERTON,false,9838,17075,353489878
91701,STANDARD,RANCHO CUCAMONGA,CA,PRIMARY,34.14,-117.61,NA-US-CA-RANCHO CUCAMONGA,false,18257,33269,918679009
92184,UNIQUE,SAN DIEGO,CA,PRIMARY,32.71,-117.16,NA-US-CA-SAN DIEGO,false,,,
95367,STANDARD,RIVERBANK,CA,PRIMARY,37.73,-120.95,NA-US-CA-RIVERBANK,false,9078,17864,348987321
90807,STANDARD,LONG BEACH,CA,PRIMARY,33.83,-118.18,NA-US-CA-LONG BEACH,false,15959,26420,795362567
94284,PO BOX,SACRAMENTO,CA,PRIMARY,38.55,-121.49,NA-US-CA-SACRAMENTO,false,,,
90410,PO BOX,SANTA MONICA,CA,PRIMARY,34.01,-118.46,NA-US-CA-SANTA MONICA,false,,,
91309,PO BOX,CANOGA PARK,CA,PRIMARY,34.21,-118.59,NA-US-CA-CANOGA PARK,false,379,590,12803555
93408,UNIQUE,SAN LUIS OBISPO,CA,PRIMARY,35.22,-120.63,NA-US-CA-SAN LUIS OBISPO,false,,,
94019,STANDARD,HALF MOON BAY,CA,PRIMARY,37.44,-122.41,NA-US-CA-HALF MOON BAY,false,7166,12963,584645177
93428,STANDARD,CAMBRIA,CA,PRIMARY,35.59,-121.01,NA-US-CA-CAMBRIA,false,3375,5624,77486374
92376,STANDARD,RIALTO,CA,PRIMARY,34.10,-117.38,NA-US-CA-RIALTO,false,28851,55471,811704568
93301,STANDARD,BAKERSFIELD,CA,PRIMARY,35.38,-119.02,NA-US-CA-BAKERSFIELD,false,4507,7620,142149353
95672,STANDARD,RESCUE,CA,PRIMARY,38.72,-121.00,NA-US-CA-RESCUE,false,2107,4022,115273050
92703,STANDARD,SANTA ANA,CA,PRIMARY,33.74,-117.89,NA-US-CA-SANTA ANA,false,24634,48715,640236193
95340,STANDARD,MERCED,CA,PRIMARY,37.29,-120.48,NA-US-CA-MERCED,false,13410,24607,473491787
92166,PO BOX,SAN DIEGO,CA,PRIMARY,32.72,-117.23,NA-US-CA-SAN DIEGO,false,485,711,18947909
91043,PO BOX,TUJUNGA,CA,PRIMARY,34.25,-118.29,NA-US-CA-TUJUNGA,false,,,
90404,STANDARD,SANTA MONICA,CA,PRIMARY,34.02,-118.47,NA-US-CA-SANTA MONICA,false,11003,16220,754476822
92083,STANDARD,VISTA,CA,PRIMARY,33.18,-117.24,NA-US-CA-VISTA,false,14065,25707,434499085
94070,STANDARD,SAN CARLOS,CA,PRIMARY,37.49,-122.26,NA-US-CA-SAN CARLOS,false,14984,26469,1417809970
93703,STANDARD,FRESNO,CA,PRIMARY,36.76,-119.76,NA-US-CA-FRESNO,false,10631,19554,238799960
91470,UNIQUE,VAN NUYS,CA,PRIMARY,34.17,-118.61,NA-US-CA-VAN NUYS,false,,,
93207,STANDARD,CALIFORNIA HOT SPRINGS,CA,PRIMARY,35.87,-118.65,NA-US-CA-CALIFORNIA HOT SPRINGS,false,,,
95821,STANDARD,SACRAMENTO,CA,PRIMARY,38.62,-121.38,NA-US-CA-SACRAMENTO,false,14852,24579,499606152
90309,PO BOX,INGLEWOOD,CA,PRIMARY,33.97,-118.35,NA-US-CA-INGLEWOOD,false,,,
94592,STANDARD,VALLEJO,CA,PRIMARY,38.11,-122.29,NA-US-CA-VALLEJO,false,311,553,22418303
93707,PO BOX,FRESNO,CA,PRIMARY,36.73,-119.78,NA-US-CA-FRESNO,false,,,
95837,STANDARD,SACRAMENTO,CA,PRIMARY,38.69,-121.60,NA-US-CA-SACRAMENTO,false,,,
92340,PO BOX,HESPERIA,CA,PRIMARY,34.41,-117.27,NA-US-CA-HESPERIA,false,1347,2409,42491510
91803,STANDARD,ALHAMBRA,CA,PRIMARY,34.07,-118.14,NA-US-CA-ALHAMBRA,false,14135,24399,489439211
90059,STANDARD,LOS ANGELES,CA,PRIMARY,33.92,-118.24,NA-US-CA-LOS ANGELES,false,13711,25507,310497390
92366,STANDARD,MOUNTAIN PASS,CA,PRIMARY,35.47,-115.52,NA-US-CA-MOUNTAIN PASS,false,,,
95409,STANDARD,SANTA ROSA,CA,PRIMARY,38.45,-122.59,NA-US-CA-SANTA ROSA,false,13123,21790,497580731
95602,STANDARD,AUBURN,CA,PRIMARY,39.00,-121.09,NA-US-CA-AUBURN,false,7726,13927,302556189
93034,PO BOX,OXNARD,CA,PRIMARY,34.17,-119.17,NA-US-CA-OXNARD,false,717,1355,18486467
90622,PO BOX,BUENA PARK,CA,PRIMARY,33.84,-118.00,NA-US-CA-BUENA PARK,false,358,587,11084370
93661,PO BOX,SANTA RITA PARK,CA,PRIMARY,37.10,-120.59,NA-US-CA-SANTA RITA PARK,false,,,
94710,STANDARD,BERKELEY,CA,PRIMARY,37.87,-122.30,NA-US-CA-BERKELEY,false,3207,5142,129812667
92199,STANDARD,SAN DIEGO,CA,PRIMARY,32.99,-117.07,NA-US-CA-SAN DIEGO,false,,,
91792,STANDARD,WEST COVINA,CA,PRIMARY,34.02,-117.89,NA-US-CA-WEST COVINA,false,13191,23683,537166104
92513,PO BOX,RIVERSIDE,CA,PRIMARY,33.91,-117.46,NA-US-CA-RIVERSIDE,false,617,1087,21192522
95638,STANDARD,HERALD,CA,PRIMARY,38.33,-121.14,NA-US-CA-HERALD,false,953,1831,43399709
92160,PO BOX,SAN DIEGO,CA,PRIMARY,32.78,-117.09,NA-US-CA-SAN DIEGO,false,340,501,11148512
95712,PO BOX,CHICAGO PARK,CA,PRIMARY,39.16,-120.95,NA-US-CA-CHICAGO PARK,false,355,609,12809053
91709,STANDARD,CHINO HILLS,CA,PRIMARY,33.94,-117.72,NA-US-CA-CHINO HILLS,false,32596,62987,2011729677
92104,STANDARD,SAN DIEGO,CA,PRIMARY,32.73,-117.12,NA-US-CA-SAN DIEGO,false,22540,32533,839080270
91001,STANDARD,ALTADENA,CA,PRIMARY,34.20,-118.13,NA-US-CA-ALTADENA,false,16652,28725,911789914
95914,STANDARD,BANGOR,CA,PRIMARY,39.42,-121.36,NA-US-CA-BANGOR,false,367,691,10608616
93285,STANDARD,WOFFORD HEIGHTS,CA,PRIMARY,35.70,-118.50,NA-US-CA-WOFFORD HEIGHTS,false,941,1528,17253263
92128,STANDARD,SAN DIEGO,CA,PRIMARY,32.99,-117.07,NA-US-CA-SAN DIEGO,false,22920,40522,1387479649
90312,PO BOX,INGLEWOOD,CA,PRIMARY,33.96,-118.35,NA-US-CA-INGLEWOOD,false,,,
94016,PO BOX,DALY CITY,CA,PRIMARY,37.70,-122.45,NA-US-CA-DALY CITY,false,,,
91724,STANDARD,COVINA,CA,PRIMARY,34.07,-117.84,NA-US-CA-COVINA,false,11634,20668,537372949
93710,STANDARD,FRESNO,CA,PRIMARY,36.81,-119.75,NA-US-CA-FRESNO,false,11641,19306,347224669
95830,STANDARD,SACRAMENTO,CA,PRIMARY,38.49,-121.27,NA-US-CA-SACRAMENTO,false,360,679,18484126
91702,STANDARD,AZUSA,CA,PRIMARY,34.17,-117.87,NA-US-CA-AZUSA,false,22898,42119,782269749
93278,PO BOX,VISALIA,CA,PRIMARY,36.30,-119.31,NA-US-CA-VISALIA,false,427,699,11079740
95816,STANDARD,SACRAMENTO,CA,PRIMARY,38.57,-121.46,NA-US-CA-SACRAMENTO,false,9820,12950,405067988
96058,STANDARD,MACDOEL,CA,PRIMARY,41.74,-121.89,NA-US-CA-MACDOEL,false,253,489,5126311
92845,STANDARD,GARDEN GROVE,CA,PRIMARY,33.78,-118.02,NA-US-CA-GARDEN GROVE,false,7831,14081,398667851
92825,PO BOX,ANAHEIM,CA,PRIMARY,33.83,-117.91,NA-US-CA-ANAHEIM,false,,,
91962,STANDARD,PINE VALLEY,CA,PRIMARY,32.78,-116.48,NA-US-CA-PINE VALLEY,false,926,1651,42076987
90710,STANDARD,HARBOR CITY,CA,PRIMARY,33.79,-118.29,NA-US-CA-HARBOR CITY,false,11094,19537,430446435
92175,PO BOX,SAN DIEGO,CA,PRIMARY,32.76,-117.06,NA-US-CA-SAN DIEGO,false,392,566,12674910
95366,STANDARD,RIPON,CA,PRIMARY,37.75,-121.12,NA-US-CA-RIPON,false,7101,13598,358572237
92162,PO BOX,SAN DIEGO,CA,PRIMARY,32.71,-117.12,NA-US-CA-SAN DIEGO,false,,,
94089,STANDARD,SUNNYVALE,CA,PRIMARY,37.42,-122.00,NA-US-CA-SUNNYVALE,false,9775,16628,577538750
94030,STANDARD,MILLBRAE,CA,PRIMARY,37.59,-122.40,NA-US-CA-MILLBRAE,false,10911,18869,578488707
94955,PO BOX,PETALUMA,CA,PRIMARY,38.22,-122.55,NA-US-CA-PETALUMA,false,349,564,15086176
95156,PO BOX,SAN JOSE,CA,PRIMARY,37.35,-121.84,NA-US-CA-SAN JOSE,false,444,790,14165454
92582,STANDARD,SAN JACINTO,CA,PRIMARY,33.81,-117.02,NA-US-CA-SAN JACINTO,false,4995,9984,183493548
92605,PO BOX,HUNTINGTON BEACH,CA,PRIMARY,33.71,-118.00,NA-US-CA-HUNTINGTON BEACH,false,296,436,12068695
93458,STANDARD,SANTA MARIA,CA,PRIMARY,34.95,-120.50,NA-US-CA-SANTA MARIA,false,17203,35006,457106953
95355,STANDARD,MODESTO,CA,PRIMARY,37.67,-120.95,NA-US-CA-MODESTO,false,23440,42666,1006872422
93215,STANDARD,DELANO,CA,PRIMARY,35.78,-119.23,NA-US-CA-DELANO,false,14632,29597,382061201
96038,STANDARD,GRENADA,CA,PRIMARY,41.60,-122.54,NA-US-CA-GRENADA,false,314,551,8279950
96071,STANDARD,OLD STATION,CA,PRIMARY,40.67,-121.47,NA-US-CA-OLD STATION,false,,,
93010,STANDARD,CAMARILLO,CA,PRIMARY,34.23,-119.07,NA-US-CA-CAMARILLO,false,19505,34198,941951719
91943,PO BOX,LA MESA,CA,PRIMARY,32.77,-117.01,NA-US-CA-LA MESA,false,252,374,8723477
92678,PO BOX,TRABUCO CANYON,CA,PRIMARY,33.66,-117.59,NA-US-CA-TRABUCO CANYON,false,330,561,16470274
95941,STANDARD,FORBESTOWN,CA,PRIMARY,39.51,-121.23,NA-US-CA-FORBESTOWN,false,,,
92285,STANDARD,LANDERS,CA,PRIMARY,34.33,-116.51,NA-US-CA-LANDERS,false,739,1274,13799878
95202,STANDARD,STOCKTON,CA,PRIMARY,37.95,-121.28,NA-US-CA-STOCKTON,false,1758,3036,30230950
94026,PO BOX,MENLO PARK,CA,PRIMARY,37.47,-122.18,NA-US-CA-MENLO PARK,false,798,1186,72962856
93422,STANDARD,ATASCADERO,CA,PRIMARY,35.45,-120.71,NA-US-CA-ATASCADERO,false,12775,22551,521831871
96023,STANDARD,DORRIS,CA,PRIMARY,41.89,-121.74,NA-US-CA-DORRIS,false,473,858,9825432
92413,PO BOX,SAN BERNARDINO,CA,PRIMARY,34.14,-117.25,NA-US-CA-SAN BERNARDINO,false,510,871,15495645
91327,PO BOX,NORTHRIDGE,CA,PRIMARY,34.27,-118.55,NA-US-CA-NORTHRIDGE,false,329,524,14919337
93634,PO BOX,LAKESHORE,CA,PRIMARY,37.33,-119.01,NA-US-CA-LAKESHORE,false,,,
93160,PO BOX,SANTA BARBARA,CA,PRIMARY,34.43,-119.80,NA-US-CA-SANTA BARBARA,false,602,909,24537583
95653,PO BOX,MADISON,CA,PRIMARY,38.67,-121.96,NA-US-CA-MADISON,false,259,493,7524294
95589,STANDARD,WHITETHORN,CA,PRIMARY,40.07,-123.92,NA-US-CA-WHITETHORN,false,437,712,4848081
93625,STANDARD,FOWLER,CA,PRIMARY,36.62,-119.67,NA-US-CA-FOWLER,false,3027,5752,106890322
94601,STANDARD,OAKLAND,CA,PRIMARY,37.77,-122.21,NA-US-CA-OAKLAND,false,18572,33456,543713558
92240,STANDARD,DESERT HOT SPRINGS,CA,PRIMARY,33.92,-116.48,NA-US-CA-DESERT HOT SPRINGS,false,12254,22246,302507869
90080,PO BOX,LOS ANGELES,CA,PRIMARY,33.95,-118.39,NA-US-CA-LOS ANGELES,false,,,
95257,STANDARD,WILSEYVILLE,CA,PRIMARY,38.38,-120.44,NA-US-CA-WILSEYVILLE,false,,,
93109,STANDARD,SANTA BARBARA,CA,PRIMARY,34.40,-119.72,NA-US-CA-SANTA BARBARA,false,5241,8228,272327778
90747,UNIQUE,CARSON,CA,PRIMARY,33.86,-118.25,NA-US-CA-CARSON,false,,,
91337,PO BOX,RESEDA,CA,PRIMARY,34.20,-118.53,NA-US-CA-RESEDA,false,428,671,15498023
92404,STANDARD,SAN BERNARDINO,CA,PRIMARY,34.17,-117.24,NA-US-CA-SAN BERNARDINO,false,20203,37086,550566966
95993,STANDARD,YUBA CITY,CA,PRIMARY,39.05,-121.73,NA-US-CA-YUBA CITY,false,14648,27844,565196874
96006,STANDARD,ADIN,CA,PRIMARY,41.15,-120.89,NA-US-CA-ADIN,false,,,
92282,STANDARD,WHITEWATER,CA,PRIMARY,33.94,-116.65,NA-US-CA-WHITEWATER,false,305,526,9057401
95736,PO BOX,WEIMAR,CA,PRIMARY,39.03,-120.96,NA-US-CA-WEIMAR,false,712,1228,23054420
92394,STANDARD,VICTORVILLE,CA,PRIMARY,34.57,-117.33,NA-US-CA-VICTORVILLE,false,9515,18928,326826139
93607,PO BOX,BURREL,CA,PRIMARY,36.48,-119.98,NA-US-CA-BURREL,false,,,
